{"type":"FeatureCollection","name":"shiro","crs":{"type":"name","properties":{"name":"urn:ogc:def:crs:OGC:1.3:CRS84"}},"features":[{"type":"Feature","properties":{"title":"\u4e00\u4e4b\u68ee\u57ce","thumbnail":"","kuni":"\u4f0a\u4e88\u56fd","gun":"\u5b87\u548c\u90e1","title_en":"Ichinomori Castle"},"geometry":{"type":"Point","coordinates":[132.63805556,33.27555556]}},{"type":"Feature","properties":{"title":"\u4f3d\u7f85\u5fa1\u6240","thumbnail":"","kuni":"\u9678\u5965\u56fd","gun":"\u78d0\u4e95\u90e1","title_en":"Garo Gosho"},"geometry":{"type":"Point","coordinates":[141.11861111,38.99111111]}},{"type":"Feature","properties":{"title":"\u5341\u6cb3\u57ce","thumbnail":"https:\/\/upload.wikimedia.org\/wikipedia\/commons\/thumb\/a\/ab\/Sogojo01.jpg\/50px-Sogojo01.jpg","kuni":"\u8b83\u5c90\u56fd","gun":"\u5c71\u7530\u90e1","title_en":"Tenth River City, capital of Japan (Tw)"},"geometry":{"type":"Point","coordinates":[134.10538889,34.26075]}},{"type":"Feature","properties":{"title":"\u5584\u9632\u5c71\u57ce","thumbnail":"","kuni":"\u64ad\u78e8\u56fd","gun":"\u52a0\u897f\u90e1","title_en":"Castle of Good Defense"},"geometry":{"type":"Point","coordinates":[134.83119444,34.8785]}},{"type":"Feature","properties":{"title":"\u559c\u5c4b\u6b66\u57ce","thumbnail":"","kuni":null,"gun":null,"title_en":"Hiya Takeshi"},"geometry":{"type":"Point","coordinates":[127.84994444,26.353575]}},{"type":"Feature","properties":{"title":"\u5f13\u6728\u57ce","thumbnail":"","kuni":"\u4e39\u5f8c\u56fd","gun":"\u4e0e\u8b1d\u90e1","title_en":"Bowood City"},"geometry":{"type":"Point","coordinates":[135.14665,35.56500278]}},{"type":"Feature","properties":{"title":"\u672c\u6e21\u57ce","thumbnail":"","kuni":"\u80a5\u5f8c\u56fd","gun":"\u5929\u8349\u90e1","title_en":"Hondojo"},"geometry":{"type":"Point","coordinates":[130.17791667,32.46366667]}},{"type":"Feature","properties":{"title":"\u771f\u9ce5\u5c71\u57ce","thumbnail":"","kuni":"\u6b66\u8535\u56fd","gun":"\u8db3\u7acb\u90e1","title_en":"Real Bird Mountain City"},"geometry":{"type":"Point","coordinates":[139.6295,35.86452778]}},{"type":"Feature","properties":{"title":"\u77e5\u5ff5\u57ce","thumbnail":"","kuni":null,"gun":null,"title_en":"Zhi Nian Cheng (\u77e5\u5ff5\u57ce) city in Shandong province"},"geometry":{"type":"Point","coordinates":[127.81111111,26.16027778]}},{"type":"Feature","properties":{"title":"\u864e\u57ce\u5c71\u57ce","thumbnail":"","kuni":"\u7d00\u4f0a\u56fd","gun":"\u725f\u5a41\u90e1","title_en":"Tiger City, mountain town"},"geometry":{"type":"Point","coordinates":[135.82908333,33.51569444]}},{"type":"Feature","properties":{"title":"\u9ad8\u898b\u57ce","thumbnail":"","kuni":"\u6b66\u8535\u56fd","gun":"\u6bd4\u4f01\u90e1","title_en":"Takamiseki"},"geometry":{"type":"Point","coordinates":[139.26377778,36.09083333]}},{"type":"Feature","properties":{"title":"\u4ef2\u6c0f\u9928","thumbnail":"","kuni":"\u7d00\u4f0a\u56fd","gun":"\u725f\u5a41\u90e1","title_en":"Chung's Pavilion"},"geometry":{"type":"Point","coordinates":[136.19894444444444,34.07094444444445]}},{"type":"Feature","properties":{"title":"\u5c71\u30ce\u795e\u7826","thumbnail":"","kuni":"\u7f8e\u6fc3\u56fd","gun":"\u4e0d\u7834\u90e1","title_en":"Yamanokami Fortress"},"geometry":{"type":"Point","coordinates":[136.593,35.37111111111111]}},{"type":"Feature","properties":{"title":"\u5fa1\u8239\u57ce","thumbnail":"","kuni":"\u80a5\u5f8c\u56fd","gun":"\u4e0a\u76ca\u57ce\u90e1","title_en":"Imperial Ship City"},"geometry":{"type":"Point","coordinates":[130.80229444444444,32.71029166666667]}},{"type":"Feature","properties":{"title":"\u677e\u6238\u57ce","thumbnail":"","kuni":"\u4e0b\u7dcf\u56fd","gun":"\u845b\u98fe\u90e1","title_en":"Matsudo Castle"},"geometry":{"type":"Point","coordinates":[139.90044444444445,35.775888888888886]}},{"type":"Feature","properties":{"title":"\u6a9c\u30f6\u5c71\u57ce","thumbnail":"https:\/\/upload.wikimedia.org\/wikipedia\/commons\/thumb\/8\/89\/Higasen_Castle.jpg\/50px-Higasen_Castle.jpg","kuni":"\u51fa\u96f2\u56fd","gun":"\u696f\u7e2b\u90e1","title_en":"Cypress Hill Castle"},"geometry":{"type":"Point","coordinates":[132.83536111111113,35.48524722222222]}},{"type":"Feature","properties":{"title":"\u7af9\u8feb\u57ce","thumbnail":"https:\/\/upload.wikimedia.org\/wikipedia\/commons\/thumb\/6\/63\/Takaba-jyou1.jpg\/50px-Takaba-jyou1.jpg","kuni":"\u80a5\u5f8c\u56fd","gun":"\u5408\u5fd7\u90e1","title_en":"Takeshima City"},"geometry":{"type":"Point","coordinates":[130.79388333333333,32.89908888888889]}},{"type":"Feature","properties":{"title":"\u963f\u5f25\u9640\u30f6\u5cf0\u57ce (\u4eac\u90fd\u5e02)","thumbnail":"","kuni":"\u5c71\u57ce\u56fd","gun":"\u611b\u5b95\u90e1","title_en":"Amidagamine Castle (Kyoto City)"},"geometry":{"type":"Point","coordinates":[135.78516666666667,34.988166666666665]}},{"type":"Feature","properties":{"title":"\u30d5\u30eb\u30b9\u30c8\u539f\u907a\u8de1","thumbnail":"https:\/\/upload.wikimedia.org\/wikipedia\/commons\/thumb\/6\/62\/Ishigaki_furusutobaru_iseki.jpg\/50px-Ishigaki_furusutobaru_iseki.jpg","kuni":null,"gun":null,"title_en":"Furst Field Ruins"},"geometry":{"type":"Point","coordinates":[124.19344444,24.35277778]}},{"type":"Feature","properties":{"title":"\u30e2\u30b7\u30ea\u30e4\u30c1\u30e3\u30b7","thumbnail":"https:\/\/upload.wikimedia.org\/wikipedia\/commons\/thumb\/4\/45\/Moshiriya_Chashi_01.JPG\/50px-Moshiriya_Chashi_01.JPG","kuni":null,"gun":null,"title_en":"moshiriya chashi"},"geometry":{"type":"Point","coordinates":[144.395916,42.983668]}},{"type":"Feature","properties":{"title":"\u4e00\u4e57\u5bfa\u57ce","thumbnail":"https:\/\/upload.wikimedia.org\/wikipedia\/commons\/thumb\/a\/a6\/Map_of_Toyama_Prefecture_Ja.svg\/50px-Map_of_Toyama_Prefecture_Ja.svg.png","kuni":"\u8d8a\u4e2d\u56fd","gun":"\u792a\u6ce2\u90e1","title_en":"Ichijyoji Castle"},"geometry":{"type":"Point","coordinates":[136.80416667,36.6375]}},{"type":"Feature","properties":{"title":"\u4e00\u4e57\u8c37\u671d\u5009\u6c0f\u907a\u8de1","thumbnail":"https:\/\/upload.wikimedia.org\/wikipedia\/commons\/thumb\/d\/d1\/Asakura_Yakata_of_Ichijodani_Asakura_Family_Historic_Ruins02s3s4440.jpg\/50px-Asakura_Yakata_of_Ichijodani_Asakura_Family_Historic_Ruins02s3s4440.jpg","kuni":"\u8d8a\u524d\u56fd","gun":"\u8db3\u7fbd\u90e1","title_en":"Ruins of the Ichijodani Asakura Clan"},"geometry":{"type":"Point","coordinates":[136.29556389,35.99949167]}},{"type":"Feature","properties":{"title":"\u4e00\u5bae\u57ce (\u5c3e\u5f35\u56fd)","thumbnail":"https:\/\/upload.wikimedia.org\/wikipedia\/commons\/thumb\/2\/27\/%E4%B8%80%E5%AE%AE%E5%9F%8E%E3%83%BC%E7%A2%91.JPG\/50px-%E4%B8%80%E5%AE%AE%E5%9F%8E%E3%83%BC%E7%A2%91.JPG","kuni":"\u5c3e\u5f35\u56fd","gun":"\u4e2d\u5cf6\u90e1","title_en":"Ichimiyagi (Owari Province)"},"geometry":{"type":"Point","coordinates":[136.80180556,35.30169444]}},{"type":"Feature","properties":{"title":"\u4e00\u5bae\u57ce (\u963f\u6ce2\u56fd)","thumbnail":"https:\/\/upload.wikimedia.org\/wikipedia\/commons\/thumb\/5\/53\/Itimayajo01.jpg\/50px-Itimayajo01.jpg","kuni":"\u963f\u6ce2\u56fd","gun":"\u540d\u6771\u90e1","title_en":"Ichinomiya Castle (Aba)"},"geometry":{"type":"Point","coordinates":[134.46308333,34.03405556]}},{"type":"Feature","properties":{"title":"\u4e00\u6238\u57ce","thumbnail":"https:\/\/upload.wikimedia.org\/wikipedia\/commons\/thumb\/a\/a0\/Map_of_Iwate_Prefecture_Ja.svg\/50px-Map_of_Iwate_Prefecture_Ja.svg.png","kuni":"\u9678\u5965\u56fd","gun":"\u4e8c\u6238\u90e1","title_en":"castle on a hill in the plains"},"geometry":{"type":"Point","coordinates":[141.30480556,40.21755556]}},{"type":"Feature","properties":{"title":"\u4e00\u65b9\u4e95\u57ce","thumbnail":"https:\/\/upload.wikimedia.org\/wikipedia\/commons\/thumb\/a\/a0\/Map_of_Iwate_Prefecture_Ja.svg\/50px-Map_of_Iwate_Prefecture_Ja.svg.png","kuni":"\u9678\u5965\u56fd","gun":"\u5ca9\u624b\u90e1","title_en":"Ichijo Ichijo"},"geometry":{"type":"Point","coordinates":[141.16461111,39.97]}},{"type":"Feature","properties":{"title":"\u4e00\u67f3\u57ce","thumbnail":"https:\/\/upload.wikimedia.org\/wikipedia\/commons\/thumb\/a\/a8\/Map_of_Gifu_Prefecture_Ja.svg\/50px-Map_of_Gifu_Prefecture_Ja.svg.png","kuni":"\u7f8e\u6fc3\u56fd","gun":"\u6b66\u5100\u90e1","title_en":"Iliucheng, a city in Shandong"},"geometry":{"type":"Point","coordinates":[137.01822222,35.59163889]}},{"type":"Feature","properties":{"title":"\u4e03\u5c3e\u57ce","thumbnail":"https:\/\/upload.wikimedia.org\/wikipedia\/commons\/thumb\/9\/9a\/Nanaojo-tyoudomaru.JPG\/50px-Nanaojo-tyoudomaru.JPG","kuni":"\u80fd\u767b\u56fd","gun":"\u9e7f\u5cf6\u90e1","title_en":"Nanao Castle"},"geometry":{"type":"Point","coordinates":[136.98391667,37.00903611]}},{"type":"Feature","properties":{"title":"\u4e03\u6238\u57ce","thumbnail":"https:\/\/upload.wikimedia.org\/wikipedia\/commons\/thumb\/3\/3a\/Map_of_Aomori_Prefecture_Ja.svg\/50px-Map_of_Aomori_Prefecture_Ja.svg.png","kuni":"\u9678\u5965\u56fd","gun":"\u5317\u90e1","title_en":"Shichinohe Castle"},"geometry":{"type":"Point","coordinates":[141.14888889,40.69805556]}},{"type":"Feature","properties":{"title":"\u4e07\u559c\u57ce","thumbnail":"https:\/\/upload.wikimedia.org\/wikipedia\/commons\/thumb\/0\/02\/Mangijo.jpg\/50px-Mangijo.jpg","kuni":"\u4e0a\u7dcf\u56fd","gun":"\u5937\u9685\u90e1","title_en":"Manhattan borough of New York City"},"geometry":{"type":"Point","coordinates":[140.32675,35.29705556]}},{"type":"Feature","properties":{"title":"\u4e09\u4e95\u57ce","thumbnail":"https:\/\/upload.wikimedia.org\/wikipedia\/commons\/thumb\/d\/d1\/Mii_castle_ruins%28Gifu%2CJapan%29_1.jpeg\/50px-Mii_castle_ruins%28Gifu%2CJapan%29_1.jpeg","kuni":"\u7f8e\u6fc3\u56fd","gun":"\u5404\u52d9\u90e1","title_en":"Mitsui Castle"},"geometry":{"type":"Point","coordinates":[136.84666667,35.38777778]}},{"type":"Feature","properties":{"title":"\u4e09\u539f\u57ce","thumbnail":"https:\/\/upload.wikimedia.org\/wikipedia\/commons\/thumb\/9\/9d\/Mihara_Castle%2C_tenshudai.jpg\/50px-Mihara_Castle%2C_tenshudai.jpg","kuni":"\u5099\u5f8c\u56fd","gun":"\u5fa1\u8abf\u90e1","title_en":"Samhara Castle"},"geometry":{"type":"Point","coordinates":[133.08265833,34.40128333]}},{"type":"Feature","properties":{"title":"\u4e09\u5d0e\u57ce","thumbnail":"https:\/\/upload.wikimedia.org\/wikipedia\/commons\/thumb\/6\/60\/Map_of_Kanagawa_Prefecture_Ja.svg\/50px-Map_of_Kanagawa_Prefecture_Ja.svg.png","kuni":"\u76f8\u6a21\u56fd","gun":"\u4e09\u6d66\u90e1","title_en":"Misaki Castle"},"geometry":{"type":"Point","coordinates":[139.62136111,35.144]}},{"type":"Feature","properties":{"title":"\u4e09\u661f\u57ce","thumbnail":"https:\/\/upload.wikimedia.org\/wikipedia\/commons\/thumb\/e\/e3\/Map_of_Okayama_Prefecture_Ja.svg\/50px-Map_of_Okayama_Prefecture_Ja.svg.png","kuni":"\u7f8e\u4f5c\u56fd","gun":"\u52dd\u5357\u90e1","title_en":"Samsung City"},"geometry":{"type":"Point","coordinates":[134.14419444,35.01130556]}},{"type":"Feature","properties":{"title":"\u4e09\u6625\u57ce","thumbnail":"https:\/\/upload.wikimedia.org\/wikipedia\/commons\/thumb\/d\/d9\/%E4%B8%89%E6%98%A5%E5%9F%8E%E8%B7%A1_%E7%9F%B3%E5%9E%A3.jpg\/50px-%E4%B8%89%E6%98%A5%E5%9F%8E%E8%B7%A1_%E7%9F%B3%E5%9E%A3.jpg","kuni":"\u9678\u5965\u56fd","gun":"\u7530\u6751\u90e1","title_en":"the city of Sanchun"},"geometry":{"type":"Point","coordinates":[140.4965,37.44255556]}},{"type":"Feature","properties":{"title":"\u4e09\u6edd\u57ce","thumbnail":"https:\/\/upload.wikimedia.org\/wikipedia\/commons\/thumb\/c\/c4\/Map_of_Ehime_Prefecture_Ja.svg\/50px-Map_of_Ehime_Prefecture_Ja.svg.png","kuni":"\u4f0a\u4e88\u56fd","gun":"\u5b87\u548c\u90e1","title_en":"Mitaki Castle"},"geometry":{"type":"Point","coordinates":[132.799275,33.409575]}},{"type":"Feature","properties":{"title":"\u4e09\u7530\u57ce","thumbnail":"https:\/\/upload.wikimedia.org\/wikipedia\/commons\/thumb\/d\/d9\/Sandaj02.jpg\/50px-Sandaj02.jpg","kuni":"\u6442\u6d25\u56fd","gun":"\u6709\u99ac\u90e1","title_en":"Sanda Castle"},"geometry":{"type":"Point","coordinates":[135.22114,34.88688361]}},{"type":"Feature","properties":{"title":"\u4e0a\u30ce\u90f7\u57ce","thumbnail":"https:\/\/upload.wikimedia.org\/wikipedia\/commons\/thumb\/1\/1d\/Kaminog%C5%8D_Castle_Site.jpg\/50px-Kaminog%C5%8D_Castle_Site.jpg","kuni":"\u4e09\u6cb3\u56fd","gun":"\u5b9d\u98ef\u90e1","title_en":"Uenogo Castle"},"geometry":{"type":"Point","coordinates":[137.22520833,34.84226389]}},{"type":"Feature","properties":{"title":"\u4e0a\u539f\u57ce","thumbnail":"https:\/\/upload.wikimedia.org\/wikipedia\/commons\/thumb\/b\/b7\/Ueharajyo.jpg\/50px-Ueharajyo.jpg","kuni":"\u4fe1\u6fc3\u56fd","gun":"\u8acf\u8a2a\u90e1","title_en":"Uehara Castle"},"geometry":{"type":"Point","coordinates":[138.14858333,36.00916667]}},{"type":"Feature","properties":{"title":"\u4e0a\u539f\u9928","thumbnail":"https:\/\/upload.wikimedia.org\/wikipedia\/commons\/thumb\/4\/4a\/Oita_uenoharu_yakata.jpg\/50px-Oita_uenoharu_yakata.jpg","kuni":"\u8c4a\u5f8c\u56fd","gun":"\u5927\u5206\u90e1","title_en":"Uehara-kan"},"geometry":{"type":"Point","coordinates":[131.61327778,33.22380556]}},{"type":"Feature","properties":{"title":"\u4e0a\u540d\u4e45\u4e95\u9928","thumbnail":"https:\/\/upload.wikimedia.org\/wikipedia\/commons\/thumb\/3\/3a\/Map_of_Aomori_Prefecture_Ja.svg\/50px-Map_of_Aomori_Prefecture_Ja.svg.png","kuni":"\u9678\u5965\u56fd","gun":"\u4e09\u6238\u90e1","title_en":"Kamina Hisaikan"},"geometry":{"type":"Point","coordinates":[141.32783333,40.416]}},{"type":"Feature","properties":{"title":"\u4e0a\u6708\u57ce","thumbnail":"https:\/\/upload.wikimedia.org\/wikipedia\/commons\/thumb\/f\/fd\/Kozuki_Castle.JPG\/50px-Kozuki_Castle.JPG","kuni":"\u64ad\u78e8\u56fd","gun":"\u4f50\u7528\u90e1","title_en":"Sheung Moon City"},"geometry":{"type":"Point","coordinates":[134.32388889,34.97555556]}},{"type":"Feature","properties":{"title":"\u4e0a\u6761\u57ce (\u5c3e\u5f35\u56fd)","thumbnail":"https:\/\/upload.wikimedia.org\/wikipedia\/commons\/thumb\/6\/6a\/%E4%B8%8A%E6%9D%A1%E5%9F%8E.JPG\/50px-%E4%B8%8A%E6%9D%A1%E5%9F%8E.JPG","kuni":"\u5c3e\u5f35\u56fd","gun":"\u6625\u65e5\u4e95\u90e1","title_en":"Kamijo Castle (Owari Province)"},"geometry":{"type":"Point","coordinates":[136.98425,35.23955556]}},{"type":"Feature","properties":{"title":"\u4e0a\u7530\u57ce","thumbnail":"https:\/\/upload.wikimedia.org\/wikipedia\/commons\/thumb\/1\/13\/Ueda_Castle_Amagafuchi.jpg\/50px-Ueda_Castle_Amagafuchi.jpg","kuni":"\u4fe1\u6fc3\u56fd","gun":"\u5c0f\u770c\u90e1","title_en":"Ueda Castle"},"geometry":{"type":"Point","coordinates":[138.24479444,36.40392222]}},{"type":"Feature","properties":{"title":"\u4e0a\u898b\u57ce","thumbnail":"https:\/\/upload.wikimedia.org\/wikipedia\/commons\/thumb\/a\/a6\/Map_of_Toyama_Prefecture_Ja.svg\/50px-Map_of_Toyama_Prefecture_Ja.svg.png","kuni":"\u8d8a\u4e2d\u56fd","gun":"\u792a\u6ce2\u90e1","title_en":"Kamimi Castle"},"geometry":{"type":"Point","coordinates":[136.88277778,36.49861111]}},{"type":"Feature","properties":{"title":"\u4e0b\u5207\u9928","thumbnail":"","kuni":"\u7f8e\u6fc3\u56fd","gun":"\u53ef\u5150\u90e1","title_en":"Undercutting Pavilion"},"geometry":{"type":"Point","coordinates":[137.05558333,35.40863889]}},{"type":"Feature","properties":{"title":"\u4e0b\u5927\u7559\u57ce","thumbnail":"https:\/\/upload.wikimedia.org\/wikipedia\/commons\/thumb\/9\/96\/%E4%B8%8B%E5%A4%A7%E7%95%99%E5%9F%8E%E4%B8%BB%E7%A2%91.JPG\/50px-%E4%B8%8B%E5%A4%A7%E7%95%99%E5%9F%8E%E4%B8%BB%E7%A2%91.JPG","kuni":"\u5c3e\u5f35\u56fd","gun":"\u6625\u65e5\u4e95\u90e1","title_en":"Lower Great Reunion"},"geometry":{"type":"Point","coordinates":[137.016,35.25572222]}},{"type":"Feature","properties":{"title":"\u4e0b\u6d25\u4e95\u57ce","thumbnail":"https:\/\/upload.wikimedia.org\/wikipedia\/commons\/thumb\/a\/a1\/Shimotsui_Castle_1.jpg\/50px-Shimotsui_Castle_1.jpg","kuni":"\u5099\u524d\u56fd","gun":"\u5150\u5cf6\u90e1","title_en":"Shimotsui Castle"},"geometry":{"type":"Point","coordinates":[133.79561667,34.44057222]}},{"type":"Feature","properties":{"title":"\u4e0b\u7530\u9928","thumbnail":"https:\/\/upload.wikimedia.org\/wikipedia\/commons\/thumb\/a\/a0\/Map_of_Iwate_Prefecture_Ja.svg\/50px-Map_of_Iwate_Prefecture_Ja.svg.png","kuni":"\u9678\u5965\u56fd","gun":"\u5ca9\u624b\u90e1","title_en":"Shimoda Hall"},"geometry":{"type":"Point","coordinates":[141.15619444,39.84783333]}},{"type":"Feature","properties":{"title":"\u4e0b\u9928\u57ce","thumbnail":"https:\/\/upload.wikimedia.org\/wikipedia\/commons\/thumb\/2\/23\/Shimodate_Castle_Site.jpg\/50px-Shimodate_Castle_Site.jpg","kuni":"\u5e38\u9678\u56fd","gun":"\u771f\u58c1\u90e1","title_en":"castle built at the foot of a hill in Shimodate"},"geometry":{"type":"Point","coordinates":[139.97744444,36.31577778]}},{"type":"Feature","properties":{"title":"\u4e16\u7530\u7c73\u57ce","thumbnail":"https:\/\/upload.wikimedia.org\/wikipedia\/commons\/thumb\/a\/a0\/Map_of_Iwate_Prefecture_Ja.svg\/50px-Map_of_Iwate_Prefecture_Ja.svg.png","kuni":"\u9678\u5965\u56fd","gun":"\u6c17\u4ed9\u90e1","title_en":"Seita Rice Town"},"geometry":{"type":"Point","coordinates":[141.57855556,39.13555556]}},{"type":"Feature","properties":{"title":"\u4e2d\u4e45\u559c\u57ce","thumbnail":"https:\/\/upload.wikimedia.org\/wikipedia\/commons\/thumb\/1\/1e\/Map_of_Tochigi_Prefecture_Ja.svg\/50px-Map_of_Tochigi_Prefecture_Ja.svg.png","kuni":"\u4e0b\u91ce\u56fd","gun":"\u90fd\u8cc0\u90e1","title_en":"Nakagusuku Heijo"},"geometry":{"type":"Point","coordinates":[139.83938889,36.30255556]}},{"type":"Feature","properties":{"title":"\u4e2d\u57ce\u57ce","thumbnail":"https:\/\/upload.wikimedia.org\/wikipedia\/commons\/thumb\/0\/04\/Nakagusuku_Castle25bs3104.jpg\/50px-Nakagusuku_Castle25bs3104.jpg","kuni":null,"gun":null,"title_en":"Midtown City"},"geometry":{"type":"Point","coordinates":[127.80136111,26.28419444]}},{"type":"Feature","properties":{"title":"\u4e2d\u5c71\u57ce (\u51fa\u7fbd\u56fd)","thumbnail":"https:\/\/upload.wikimedia.org\/wikipedia\/commons\/thumb\/1\/1c\/Map_of_Yamagata_Prefecture_Ja.svg\/50px-Map_of_Yamagata_Prefecture_Ja.svg.png","kuni":"\u51fa\u7fbd\u56fd","gun":"\u7f6e\u8cdc\u90e1","title_en":"Nakayama Castle (Izumikuni)"},"geometry":{"type":"Point","coordinates":[140.21219444,38.12644444]}},{"type":"Feature","properties":{"title":"\u4e2d\u5c71\u57ce (\u65e5\u5411\u56fd)","thumbnail":"https:\/\/upload.wikimedia.org\/wikipedia\/commons\/thumb\/7\/7e\/Map_of_Miyazaki_Prefecture_Ja.svg\/50px-Map_of_Miyazaki_Prefecture_Ja.svg.png","kuni":"\u65e5\u5411\u56fd","gun":"\u81fc\u6775\u90e1","title_en":"Nakayama Castle (Hyuga Kingdom)"},"geometry":{"type":"Point","coordinates":[131.29944444,32.69594444]}},{"type":"Feature","properties":{"title":"\u4e2d\u5ce0\u57ce","thumbnail":"https:\/\/upload.wikimedia.org\/wikipedia\/commons\/thumb\/4\/47\/Ruin_of_Nakabyo_Castle.jpg\/50px-Ruin_of_Nakabyo_Castle.jpg","kuni":"\u4e0b\u7dcf\u56fd","gun":"\u76f8\u99ac\u90e1","title_en":"Nakagokujo (Japanese kokuji)"},"geometry":{"type":"Point","coordinates":[140.07603333,35.87577778]}},{"type":"Feature","properties":{"title":"\u4e2d\u5e02\u9928","thumbnail":"https:\/\/upload.wikimedia.org\/wikipedia\/commons\/thumb\/3\/3a\/Map_of_Aomori_Prefecture_Ja.svg\/50px-Map_of_Aomori_Prefecture_Ja.svg.png","kuni":"\u9678\u5965\u56fd","gun":"\u4e09\u6238\u90e1","title_en":"Nakashikan"},"geometry":{"type":"Point","coordinates":[141.25819444,40.50219444]}},{"type":"Feature","properties":{"title":"\u4e2d\u6751\u57ce (\u4e0b\u91ce\u56fd)","thumbnail":"https:\/\/upload.wikimedia.org\/wikipedia\/commons\/thumb\/3\/36\/NakamuraJyou.png\/50px-NakamuraJyou.png","kuni":"\u4e0b\u91ce\u56fd","gun":"\u82b3\u8cc0\u90e1","title_en":"Nakamura Castle (Shimono-gun)"},"geometry":{"type":"Point","coordinates":[139.95703889,36.40930278]}},{"type":"Feature","properties":{"title":"\u4e2d\u6751\u5c71\u57ce (\u8d8a\u4e2d\u56fd)","thumbnail":"https:\/\/upload.wikimedia.org\/wikipedia\/commons\/thumb\/a\/ad\/ToyamaNakamura_castle.JPG\/50px-ToyamaNakamura_castle.JPG","kuni":"\u8d8a\u4e2d\u56fd","gun":"\u5c04\u6c34\u90e1","title_en":"Nakamura Yamashiro (Viet China)"},"geometry":{"type":"Point","coordinates":[136.93111111,36.87166667]}},{"type":"Feature","properties":{"title":"\u4e2d\u91ce\u57ce (\u4e0a\u91ce\u56fd)","thumbnail":"https:\/\/upload.wikimedia.org\/wikipedia\/commons\/thumb\/b\/b5\/Map_of_Gunma_Prefecture_Ja.svg\/50px-Map_of_Gunma_Prefecture_Ja.svg.png","kuni":"\u4e0a\u91ce\u56fd","gun":"\u9091\u697d\u90e1","title_en":"Nakano Castle (Ueno Province)"},"geometry":{"type":"Point","coordinates":[139.465,36.26566667]}},{"type":"Feature","properties":{"title":"\u4e2d\u91ce\u57ce (\u4e0b\u7dcf\u56fd)","thumbnail":"https:\/\/upload.wikimedia.org\/wikipedia\/commons\/thumb\/8\/81\/Nakanojo.jpg\/50px-Nakanojo.jpg","kuni":"\u4e0b\u7dcf\u56fd","gun":"\u5343\u8449\u90e1","title_en":"Nakano Castle (Shimousa Province)"},"geometry":{"type":"Point","coordinates":[140.26569444,35.58219444]}},{"type":"Feature","properties":{"title":"\u4e2d\u91ce\u57ce (\u7d00\u4f0a\u56fd)","thumbnail":"https:\/\/upload.wikimedia.org\/wikipedia\/commons\/thumb\/9\/90\/Map_of_Wakayama_Prefecture_Ja.svg\/50px-Map_of_Wakayama_Prefecture_Ja.svg.png","kuni":"\u7d00\u4f0a\u56fd","gun":"\u540d\u8349\u90e1","title_en":"Nakano Castle (Kii Province)"},"geometry":{"type":"Point","coordinates":[135.13975,34.25611111]}},{"type":"Feature","properties":{"title":"\u4e2d\u91ce\u9928 (\u9678\u5965\u56fd)","thumbnail":"https:\/\/upload.wikimedia.org\/wikipedia\/commons\/thumb\/a\/a0\/Map_of_Iwate_Prefecture_Ja.svg\/50px-Map_of_Iwate_Prefecture_Ja.svg.png","kuni":"\u9678\u5965\u56fd","gun":"\u5ca9\u624b\u90e1","title_en":"Nakanokan (Mutsu Province)"},"geometry":{"type":"Point","coordinates":[141.16205556,39.69419444]}},{"type":"Feature","properties":{"title":"\u4e38\u4e80\u57ce","thumbnail":"https:\/\/upload.wikimedia.org\/wikipedia\/commons\/thumb\/5\/56\/Marugame_Castle01.jpg\/50px-Marugame_Castle01.jpg","kuni":"\u8b83\u5c90\u56fd","gun":"\u90a3\u73c2\u90e1","title_en":"Marugame Castle"},"geometry":{"type":"Point","coordinates":[133.80009722,34.28628611]}},{"type":"Feature","properties":{"title":"\u4e38\u5b50\u57ce (\u4fe1\u6fc3\u56fd)","thumbnail":"https:\/\/upload.wikimedia.org\/wikipedia\/commons\/thumb\/7\/79\/Watchtower_at_Maruko_Castle.jpg\/50px-Watchtower_at_Maruko_Castle.jpg","kuni":"\u4fe1\u6fc3\u56fd","gun":"\u5c0f\u770c\u90e1","title_en":"Marukujo (Shinano Koku)"},"geometry":{"type":"Point","coordinates":[138.26355556,36.31730556]}},{"type":"Feature","properties":{"title":"\u4e38\u5b50\u57ce (\u99ff\u6cb3\u56fd)","thumbnail":"https:\/\/upload.wikimedia.org\/wikipedia\/commons\/thumb\/1\/16\/Map_of_Shizuoka_Prefecture_Ja.svg\/50px-Map_of_Shizuoka_Prefecture_Ja.svg.png","kuni":"\u99ff\u6cb3\u56fd","gun":"\u6709\u6e21\u90e1","title_en":"Marukujo (Suruga-kuni)"},"geometry":{"type":"Point","coordinates":[138.32838889,34.95138889]}},{"type":"Feature","properties":{"title":"\u4e38\u5ca1\u57ce (\u51fa\u7fbd\u56fd)","thumbnail":"https:\/\/upload.wikimedia.org\/wikipedia\/commons\/thumb\/1\/1c\/Map_of_Yamagata_Prefecture_Ja.svg\/50px-Map_of_Yamagata_Prefecture_Ja.svg.png","kuni":"\u51fa\u7fbd\u56fd","gun":"\u7530\u5ddd\u90e1","title_en":"Maruoka Castle (Izumikuni)"},"geometry":{"type":"Point","coordinates":[139.83163889,38.68122222]}},{"type":"Feature","properties":{"title":"\u4e38\u5ca1\u57ce","thumbnail":"https:\/\/upload.wikimedia.org\/wikipedia\/commons\/thumb\/c\/c6\/Maruoka_Castle_Keep_Tower%2C_Maruoka-cho_Sakai_2013.jpg\/50px-Maruoka_Castle_Keep_Tower%2C_Maruoka-cho_Sakai_2013.jpg","kuni":"\u8d8a\u524d\u56fd","gun":"\u5742\u4e95\u90e1","title_en":"Maruoka Castle"},"geometry":{"type":"Point","coordinates":[136.27214444,36.15242222]}},{"type":"Feature","properties":{"title":"\u4e38\u68ee\u57ce","thumbnail":"https:\/\/upload.wikimedia.org\/wikipedia\/commons\/thumb\/9\/92\/Map_of_Miyagi_Prefecture_Ja.svg\/50px-Map_of_Miyagi_Prefecture_Ja.svg.png","kuni":"\u9678\u5965\u56fd","gun":"\u4f0a\u5177\u90e1","title_en":"Marumori Castle"},"geometry":{"type":"Point","coordinates":[140.77505556,37.91052778]}},{"type":"Feature","properties":{"title":"\u4e45\u3005\u5229\u57ce","thumbnail":"https:\/\/upload.wikimedia.org\/wikipedia\/commons\/thumb\/a\/a6\/Kukuri_castle.JPG\/50px-Kukuri_castle.JPG","kuni":"\u7f8e\u6fc3\u56fd","gun":"\u53ef\u5150\u90e1","title_en":"Kusari-jo"},"geometry":{"type":"Point","coordinates":[137.11358333,35.40483333]}},{"type":"Feature","properties":{"title":"\u4e45\u6148\u57ce","thumbnail":"https:\/\/upload.wikimedia.org\/wikipedia\/commons\/thumb\/a\/a0\/Map_of_Iwate_Prefecture_Ja.svg\/50px-Map_of_Iwate_Prefecture_Ja.svg.png","kuni":"\u9678\u5965\u56fd","gun":"\u4e5d\u6238\u90e1","title_en":"Jiu Ci Cheng (honorific)"},"geometry":{"type":"Point","coordinates":[141.71,40.1925]}},{"type":"Feature","properties":{"title":"\u4e45\u7559\u7c73\u57ce","thumbnail":"https:\/\/upload.wikimedia.org\/wikipedia\/commons\/thumb\/f\/fa\/Kurume_castle.JPG\/50px-Kurume_castle.JPG","kuni":"\u7b51\u5f8c\u56fd","gun":"\u5fa1\u4e95\u90e1","title_en":"Kurume Castle"},"geometry":{"type":"Point","coordinates":[130.50777222,33.328425]}},{"type":"Feature","properties":{"title":"\u4e45\u80fd\u5c71\u6771\u7167\u5bae","thumbnail":"https:\/\/upload.wikimedia.org\/wikipedia\/commons\/thumb\/8\/85\/%E4%B9%85%E8%83%BD%E5%B1%B1%E6%9D%B1%E7%85%A7%E5%AE%AE%E6%A5%BC%E9%96%80.png\/50px-%E4%B9%85%E8%83%BD%E5%B1%B1%E6%9D%B1%E7%85%A7%E5%AE%AE%E6%A5%BC%E9%96%80.png","kuni":"\u99ff\u6cb3\u56fd","gun":"\u6709\u6e21\u90e1","title_en":"Kunozan Toshogu Shrine"},"geometry":{"type":"Point","coordinates":[138.46759167,34.96485278]}},{"type":"Feature","properties":{"title":"\u4e59\u5b50\u57ce","thumbnail":"https:\/\/upload.wikimedia.org\/wikipedia\/commons\/thumb\/3\/3e\/Otogo_Castle.JPG\/50px-Otogo_Castle.JPG","kuni":"\u5099\u524d\u56fd","gun":"\u9091\u4e45\u90e1","title_en":"Castle Ethon (city in Nordland, Norway)"},"geometry":{"type":"Point","coordinates":[134.039425,34.63043333]}},{"type":"Feature","properties":{"title":"\u4e59\u90e8\u9928","thumbnail":"https:\/\/upload.wikimedia.org\/wikipedia\/commons\/thumb\/a\/a0\/Map_of_Iwate_Prefecture_Ja.svg\/50px-Map_of_Iwate_Prefecture_Ja.svg.png","kuni":"\u9678\u5965\u56fd","gun":"\u5fd7\u548c\u90e1","title_en":"Abeokan"},"geometry":{"type":"Point","coordinates":[141.19980556,39.61075]}},{"type":"Feature","properties":{"title":"\u4e5d\u4e4b\u576a\u57ce","thumbnail":"https:\/\/upload.wikimedia.org\/wikipedia\/commons\/thumb\/6\/69\/%E4%B9%9D%E4%B9%8B%E5%9D%AA%E5%9F%8E%E3%83%BC%E7%A2%91.JPG\/50px-%E4%B9%9D%E4%B9%8B%E5%9D%AA%E5%9F%8E%E3%83%BC%E7%A2%91.JPG","kuni":"\u5c3e\u5f35\u56fd","gun":"\u6625\u65e5\u4e95\u90e1","title_en":"Kuji no Tsubo Castle"},"geometry":{"type":"Point","coordinates":[136.87422222,35.238]}},{"type":"Feature","properties":{"title":"\u4e5d\u6238\u57ce","thumbnail":"https:\/\/upload.wikimedia.org\/wikipedia\/commons\/thumb\/8\/8a\/Kunohejou001.jpg\/50px-Kunohejou001.jpg","kuni":"\u9678\u5965\u56fd","gun":"\u4e8c\u6238\u90e1","title_en":"Kudo Castle"},"geometry":{"type":"Point","coordinates":[141.30444444,40.2675]}},{"type":"Feature","properties":{"title":"\u4e80\u5c45\u57ce","thumbnail":"https:\/\/upload.wikimedia.org\/wikipedia\/commons\/thumb\/6\/61\/Kamei_Castle_01.jpg\/50px-Kamei_Castle_01.jpg","kuni":"\u5b89\u82b8\u56fd","gun":"\u4f50\u4f2f\u90e1","title_en":"Kameju City"},"geometry":{"type":"Point","coordinates":[132.21622222,34.24041667]}},{"type":"Feature","properties":{"title":"\u4e80\u5c71\u57ce (\u4e09\u6cb3\u56fd)","thumbnail":"https:\/\/upload.wikimedia.org\/wikipedia\/commons\/thumb\/5\/58\/Kameyama_Castle5.jpg\/50px-Kameyama_Castle5.jpg","kuni":"\u4e09\u6cb3\u56fd","gun":"\u8a2d\u697d\u90e1","title_en":"Kameyama Castle (Mikawa Province)"},"geometry":{"type":"Point","coordinates":[137.42330556,34.96380556]}},{"type":"Feature","properties":{"title":"\u4e80\u5c71\u57ce (\u4e39\u6ce2\u56fd)","thumbnail":"https:\/\/upload.wikimedia.org\/wikipedia\/commons\/thumb\/9\/9a\/Kameyama-jo_Tambanokuni_ishigaki.jpg\/50px-Kameyama-jo_Tambanokuni_ishigaki.jpg","kuni":"\u4e39\u6ce2\u56fd","gun":"\u6851\u7530\u90e1","title_en":"Kameyama Castle (Tamba Province)"},"geometry":{"type":"Point","coordinates":[135.5812,35.01356111]}},{"type":"Feature","properties":{"title":"\u4e80\u5c71\u57ce (\u4f0a\u52e2\u56fd)","thumbnail":"https:\/\/upload.wikimedia.org\/wikipedia\/commons\/thumb\/b\/b0\/%E4%BA%80%E5%B1%B1%E5%9F%8E%E5%A4%9A%E8%81%9E%E6%AB%93.JPG\/50px-%E4%BA%80%E5%B1%B1%E5%9F%8E%E5%A4%9A%E8%81%9E%E6%AB%93.JPG","kuni":"\u4f0a\u52e2\u56fd","gun":"\u9234\u9e7f\u90e1","title_en":"Kameyama Castle (Ise Province)"},"geometry":{"type":"Point","coordinates":[136.45059167,34.85614722]}},{"type":"Feature","properties":{"title":"\u4e80\u5c71\u57ce (\u5099\u524d\u56fd)","thumbnail":"https:\/\/upload.wikimedia.org\/wikipedia\/commons\/thumb\/c\/c2\/Numa_Kameyama_Castle_02.JPG\/50px-Numa_Kameyama_Castle_02.JPG","kuni":"\u5099\u524d\u56fd","gun":"\u4e0a\u9053\u90e1","title_en":"Kameyama Castle (Bizenland)"},"geometry":{"type":"Point","coordinates":[134.03638889,34.70666667]}},{"type":"Feature","properties":{"title":"\u4e80\u5c71\u57ce (\u5099\u5f8c\u56fd)","thumbnail":"https:\/\/upload.wikimedia.org\/wikipedia\/commons\/thumb\/8\/8a\/Map_of_Hiroshima_Prefecture_Ja.svg\/50px-Map_of_Hiroshima_Prefecture_Ja.svg.png","kuni":"\u5099\u5f8c\u56fd","gun":"\u5974\u53ef\u90e1","title_en":"Kameyama Castle (Biegoguni)"},"geometry":{"type":"Point","coordinates":[133.20830556,34.9915]}},{"type":"Feature","properties":{"title":"\u4e80\u5c71\u57ce (\u7d00\u4f0a\u56fd)","thumbnail":"https:\/\/upload.wikimedia.org\/wikipedia\/commons\/thumb\/9\/90\/Map_of_Wakayama_Prefecture_Ja.svg\/50px-Map_of_Wakayama_Prefecture_Ja.svg.png","kuni":"\u7d00\u4f0a\u56fd","gun":"\u65e5\u9ad8\u90e1","title_en":"Kameyama Castle (Kii Province)"},"geometry":{"type":"Point","coordinates":[135.15463889,33.91097222]}},{"type":"Feature","properties":{"title":"\u4e80\u5c71\u57ce (\u9577\u9580\u56fd)","thumbnail":"https:\/\/upload.wikimedia.org\/wikipedia\/commons\/thumb\/c\/c7\/Kameyama_castle.JPG\/50px-Kameyama_castle.JPG","kuni":"\u9577\u9580\u56fd","gun":"\u5927\u6d25\u90e1","title_en":"Kameyama Castle (Nagato Province)"},"geometry":{"type":"Point","coordinates":[131.18330556,34.37155556]}},{"type":"Feature","properties":{"title":"\u4e8c\u4e0a\u5c71\u57ce","thumbnail":"https:\/\/upload.wikimedia.org\/wikipedia\/commons\/thumb\/a\/ad\/%E4%BA%8C%E4%B8%8A%E5%B1%B1%EF%BC%88%E9%B3%A5%E5%8F%96%E7%9C%8C%E5%B2%A9%E7%BE%8E%E7%94%BA%EF%BC%89.jpg\/50px-%E4%BA%8C%E4%B8%8A%E5%B1%B1%EF%BC%88%E9%B3%A5%E5%8F%96%E7%9C%8C%E5%B2%A9%E7%BE%8E%E7%94%BA%EF%BC%89.jpg","kuni":"\u56e0\u5e61\u56fd","gun":"\u5ca9\u4e95\u90e1","title_en":"Nishikami Yamashiro"},"geometry":{"type":"Point","coordinates":[134.31894444,35.54036111]}},{"type":"Feature","properties":{"title":"\u4e8c\u5b50\u57ce","thumbnail":"https:\/\/upload.wikimedia.org\/wikipedia\/commons\/thumb\/0\/09\/Futago_catsle_in_Kitakami.jpg\/50px-Futago_catsle_in_Kitakami.jpg","kuni":"\u9678\u5965\u56fd","gun":"\u548c\u8cc0\u90e1","title_en":"Erzinchen (town on the Rhine opposite Erzinchen, subsequently divided into two neighboring towns)"},"geometry":{"type":"Point","coordinates":[141.13855556,39.33166667]}},{"type":"Feature","properties":{"title":"\u4e8c\u6761\u57ce","thumbnail":"https:\/\/upload.wikimedia.org\/wikipedia\/commons\/thumb\/a\/a0\/Kyoto_Nijo-jo_Kara-mon-Tor_01.jpg\/50px-Kyoto_Nijo-jo_Kara-mon-Tor_01.jpg","kuni":"\u5c71\u57ce\u56fd","gun":"\u611b\u5b95\u90e1","title_en":"Nijojo Castle"},"geometry":{"type":"Point","coordinates":[135.7475,35.01415556]}},{"type":"Feature","properties":{"title":"\u4e8c\u9023\u6728\u57ce","thumbnail":"https:\/\/upload.wikimedia.org\/wikipedia\/commons\/thumb\/4\/45\/Nirengijo.jpg\/50px-Nirengijo.jpg","kuni":"\u4e09\u6cb3\u56fd","gun":"\u6e25\u7f8e\u90e1","title_en":"double-tiered tree castle"},"geometry":{"type":"Point","coordinates":[137.41484722,34.77001389]}},{"type":"Feature","properties":{"title":"\u4e94\u7a1c\u90ed","thumbnail":"https:\/\/upload.wikimedia.org\/wikipedia\/commons\/thumb\/d\/d5\/Hakodate_Goryokaku_Panorama_1.JPG\/50px-Hakodate_Goryokaku_Panorama_1.JPG","kuni":null,"gun":null,"title_en":"five-sided fortification"},"geometry":{"type":"Point","coordinates":[140.75696111,41.7969]}},{"type":"Feature","properties":{"title":"\u4e95\u4e0a\u57ce","thumbnail":"https:\/\/upload.wikimedia.org\/wikipedia\/commons\/thumb\/7\/7e\/Map_of_Miyazaki_Prefecture_Ja.svg\/50px-Map_of_Miyazaki_Prefecture_Ja.svg.png","kuni":"\u65e5\u5411\u56fd","gun":"\u81fc\u6775\u90e1","title_en":"Inoue City"},"geometry":{"type":"Point","coordinates":[131.65405556,32.56480556]}},{"type":"Feature","properties":{"title":"\u4e95\u4f0a\u8c37\u57ce","thumbnail":"https:\/\/upload.wikimedia.org\/wikipedia\/commons\/thumb\/1\/19\/%E4%BA%95%E4%BC%8A%E8%B0%B7%E5%9F%8E%E8%B7%A1%E3%81%8B%E3%82%89%E3%81%AE%E7%9C%BA%E3%82%81.jpg\/50px-%E4%BA%95%E4%BC%8A%E8%B0%B7%E5%9F%8E%E8%B7%A1%E3%81%8B%E3%82%89%E3%81%AE%E7%9C%BA%E3%82%81.jpg","kuni":"\u9060\u6c5f\u56fd","gun":"\u5f15\u4f50\u90e1","title_en":"Iyi Valley City"},"geometry":{"type":"Point","coordinates":[137.67063889,34.83688889]}},{"type":"Feature","properties":{"title":"\u4e95\u53e3\u57ce","thumbnail":"https:\/\/upload.wikimedia.org\/wikipedia\/commons\/thumb\/a\/a6\/Map_of_Toyama_Prefecture_Ja.svg\/50px-Map_of_Toyama_Prefecture_Ja.svg.png","kuni":"\u8d8a\u4e2d\u56fd","gun":"\u792a\u6ce2\u90e1","title_en":"Jingou City, Hainan"},"geometry":{"type":"Point","coordinates":[136.93069444,36.54458333]}},{"type":"Feature","properties":{"title":"\u4e95\u5ddd\u9928","thumbnail":"https:\/\/upload.wikimedia.org\/wikipedia\/commons\/thumb\/8\/84\/Former_igawa_castle.jpg\/50px-Former_igawa_castle.jpg","kuni":"\u4fe1\u6fc3\u56fd","gun":"\u7b51\u6469\u90e1","title_en":"Igawa-kan"},"geometry":{"type":"Point","coordinates":[137.96455556,36.22230556]}},{"type":"Feature","properties":{"title":"\u4e95\u6ce2\u57ce","thumbnail":"https:\/\/upload.wikimedia.org\/wikipedia\/commons\/thumb\/2\/2e\/Inami_Castle.JPG\/50px-Inami_Castle.JPG","kuni":"\u8d8a\u4e2d\u56fd","gun":"\u792a\u6ce2\u90e1","title_en":"Inami Castle (Sept. 8-14, 1926)"},"geometry":{"type":"Point","coordinates":[136.97416667,36.55944444]}},{"type":"Feature","properties":{"title":"\u4e95\u7530\u57ce (\u4e09\u6cb3\u56fd)","thumbnail":"https:\/\/upload.wikimedia.org\/wikipedia\/commons\/thumb\/1\/14\/Okazaki-City-Idajo-2.jpg\/50px-Okazaki-City-Idajo-2.jpg","kuni":"\u4e09\u6cb3\u56fd","gun":"\u984d\u7530\u90e1","title_en":"Iida Castle (Mikawa Province)"},"geometry":{"type":"Point","coordinates":[137.16466667,34.97672222]}},{"type":"Feature","properties":{"title":"\u4e98\u7406\u57ce","thumbnail":"https:\/\/upload.wikimedia.org\/wikipedia\/commons\/thumb\/f\/f0\/Watarijyo.jpg\/50px-Watarijyo.jpg","kuni":"\u9678\u5965\u56fd","gun":"\u4e98\u7406\u90e1","title_en":"Ganymede, a city in Qinhai, Shanxi"},"geometry":{"type":"Point","coordinates":[140.85111111,38.03361111]}},{"type":"Feature","properties":{"title":"\u4ea5\u9f3b\u57ce","thumbnail":"https:\/\/upload.wikimedia.org\/wikipedia\/commons\/thumb\/6\/6f\/View_of_the_Chiba_City_Folk_Museum_from_Chiba_Prefectural_Government_Office_Main_Building.jpg\/50px-View_of_the_Chiba_City_Folk_Museum_from_Chiba_Prefectural_Government_Office_Main_Building.jpg","kuni":"\u4e0b\u7dcf\u56fd","gun":"\u5343\u8449\u90e1","title_en":"Benihannasaurus (place name)"},"geometry":{"type":"Point","coordinates":[140.13033333,35.60408333]}},{"type":"Feature","properties":{"title":"\u4eba\u5409\u57ce","thumbnail":"https:\/\/upload.wikimedia.org\/wikipedia\/commons\/thumb\/5\/57\/Hitoyoshi_Castle%2C_enkei-3.jpg\/50px-Hitoyoshi_Castle%2C_enkei-3.jpg","kuni":"\u80a5\u5f8c\u56fd","gun":"\u7403\u78e8\u90e1","title_en":"Phnom Penh, capital of Cambodia (Tw)"},"geometry":{"type":"Point","coordinates":[130.76649167,32.21108333]}},{"type":"Feature","properties":{"title":"\u4ec1\u4fdd\u57ce","thumbnail":"https:\/\/upload.wikimedia.org\/wikipedia\/commons\/thumb\/8\/8a\/Map_of_Hiroshima_Prefecture_Ja.svg\/50px-Map_of_Hiroshima_Prefecture_Ja.svg.png","kuni":"\u5b89\u82b8\u56fd","gun":"\u5b89\u82b8\u90e1","title_en":"Rinbung city (Indonesian town on the south coast of Sumatra)"},"geometry":{"type":"Point","coordinates":[132.49044444,34.36644444]}},{"type":"Feature","properties":{"title":"\u4eca\u57ce (\u4e0b\u7dcf\u56fd)","thumbnail":"https:\/\/upload.wikimedia.org\/wikipedia\/commons\/thumb\/f\/fb\/CKT20083-C6-24_Uraraka_Park.jpg\/50px-CKT20083-C6-24_Uraraka_Park.jpg","kuni":"\u4e0b\u7dcf\u56fd","gun":"\u76f8\u99ac\u90e1","title_en":"Imajo (Shimousa Province)"},"geometry":{"type":"Point","coordinates":[139.99194444,35.93194444]}},{"type":"Feature","properties":{"title":"\u4eca\u57ce (\u7f8e\u6fc3\u56fd)","thumbnail":"https:\/\/upload.wikimedia.org\/wikipedia\/commons\/thumb\/0\/0b\/%E4%BB%8A%E5%9F%8E%E7%9F%B3%E7%A2%91.JPG\/50px-%E4%BB%8A%E5%9F%8E%E7%9F%B3%E7%A2%91.JPG","kuni":"\u7f8e\u6fc3\u56fd","gun":"\u53ef\u5150\u90e1","title_en":"Imajo (Minokuni)"},"geometry":{"type":"Point","coordinates":[137.05111111,35.38036111]}},{"type":"Feature","properties":{"title":"\u4eca\u5e30\u4ec1\u57ce","thumbnail":"https:\/\/upload.wikimedia.org\/wikipedia\/commons\/thumb\/7\/7d\/Nakijin_Okinawa_Japan_Nakikjin-Castle-01.jpg\/50px-Nakijin_Okinawa_Japan_Nakikjin-Castle-01.jpg","kuni":null,"gun":null,"title_en":"Inseong (\u4eca\u5e30\u4ec1\u57ce)"},"geometry":{"type":"Point","coordinates":[127.92977778,26.69077778]}},{"type":"Feature","properties":{"title":"\u4eca\u6751\u57ce (\u5c3e\u5f35\u56fd)","thumbnail":"https:\/\/upload.wikimedia.org\/wikipedia\/commons\/thumb\/6\/64\/Imamura_castle.JPG\/50px-Imamura_castle.JPG","kuni":"\u5c3e\u5f35\u56fd","gun":"\u6625\u65e5\u4e95\u90e1","title_en":"Imamura Castle (Owari Province)"},"geometry":{"type":"Point","coordinates":[137.07263889,35.21827778]}},{"type":"Feature","properties":{"title":"\u4eca\u6cbb\u57ce","thumbnail":"https:\/\/upload.wikimedia.org\/wikipedia\/commons\/thumb\/4\/49\/Imabari_castle.JPG\/50px-Imabari_castle.JPG","kuni":"\u4f0a\u4e88\u56fd","gun":"\u8d8a\u667a\u90e1","title_en":"Imaji City"},"geometry":{"type":"Point","coordinates":[133.00680556,34.06333611]}},{"type":"Feature","properties":{"title":"\u4eca\u6cc9\u57ce (\u8d8a\u4e2d\u56fd)","thumbnail":"https:\/\/upload.wikimedia.org\/wikipedia\/commons\/thumb\/a\/a6\/Map_of_Toyama_Prefecture_Ja.svg\/50px-Map_of_Toyama_Prefecture_Ja.svg.png","kuni":"\u8d8a\u4e2d\u56fd","gun":"\u65b0\u5ddd\u90e1","title_en":"Imaquancheng (Vietnam)"},"geometry":{"type":"Point","coordinates":[137.21388889,36.66972222]}},{"type":"Feature","properties":{"title":"\u4eca\u77f3\u52d5\u57ce","thumbnail":"https:\/\/upload.wikimedia.org\/wikipedia\/commons\/thumb\/a\/a6\/Map_of_Toyama_Prefecture_Ja.svg\/50px-Map_of_Toyama_Prefecture_Ja.svg.png","kuni":"\u8d8a\u4e2d\u56fd","gun":"\u792a\u6ce2\u90e1","title_en":"present-day Shimizu Castle"},"geometry":{"type":"Point","coordinates":[136.85852778,36.68327778]}},{"type":"Feature","properties":{"title":"\u4ed9\u53f0\u57ce","thumbnail":"https:\/\/upload.wikimedia.org\/wikipedia\/commons\/thumb\/f\/ff\/SendaiJoOtemonSumiYagura2003-11.jpg\/50px-SendaiJoOtemonSumiYagura2003-11.jpg","kuni":"\u9678\u5965\u56fd","gun":"\u5bae\u57ce\u90e1","title_en":"Sendai city in northeast Japan"},"geometry":{"type":"Point","coordinates":[140.85615556,38.25247778]}},{"type":"Feature","properties":{"title":"\u4f0a\u4f50\u57ce","thumbnail":"https:\/\/upload.wikimedia.org\/wikipedia\/commons\/thumb\/3\/3f\/Map_of_Ibaraki_Prefecture_Ja.svg\/50px-Map_of_Ibaraki_Prefecture_Ja.svg.png","kuni":"\u5e38\u9678\u56fd","gun":"\u771f\u58c1\u90e1","title_en":"castle built across a river with a hill on which Izanagi and Izanami are said to have wed"},"geometry":{"type":"Point","coordinates":[139.97625,36.33105556]}},{"type":"Feature","properties":{"title":"\u4f0a\u662f\u540d\u57ce","thumbnail":"https:\/\/upload.wikimedia.org\/wikipedia\/commons\/thumb\/9\/9d\/FH010003.JPG\/50px-FH010003.JPG","kuni":null,"gun":null,"title_en":"It's a famous city."},"geometry":{"type":"Point","coordinates":[127.95191667,26.91455833]}},{"type":"Feature","properties":{"title":"\u4f0f\u898b\u57ce","thumbnail":"https:\/\/upload.wikimedia.org\/wikipedia\/commons\/thumb\/3\/37\/FushimiCastle.JPG\/50px-FushimiCastle.JPG","kuni":"\u5c71\u57ce\u56fd","gun":"\u7d00\u4f0a\u90e1","title_en":"Fushimi Castle"},"geometry":{"type":"Point","coordinates":[135.77688889,34.93947222]}},{"type":"Feature","properties":{"title":"\u4f50\u5009\u57ce","thumbnail":"https:\/\/upload.wikimedia.org\/wikipedia\/commons\/thumb\/d\/d7\/Sakura_Castle_2.JPG\/50px-Sakura_Castle_2.JPG","kuni":"\u4e0b\u7dcf\u56fd","gun":"\u5370\u65db\u90e1","title_en":"Sakura Castle"},"geometry":{"type":"Point","coordinates":[140.21671667,35.72198889]}},{"type":"Feature","properties":{"title":"\u4f50\u539f\u57ce","thumbnail":"https:\/\/upload.wikimedia.org\/wikipedia\/commons\/thumb\/1\/18\/%E4%BD%90%E5%8E%9F%E5%9F%8E%E8%B7%A1.jpg\/50px-%E4%BD%90%E5%8E%9F%E5%9F%8E%E8%B7%A1.jpg","kuni":"\u76f8\u6a21\u56fd","gun":"\u4e09\u6d66\u90e1","title_en":"Sahara Castle"},"geometry":{"type":"Point","coordinates":[139.68322222,35.23827778]}},{"type":"Feature","properties":{"title":"\u4f50\u571f\u539f\u57ce","thumbnail":"https:\/\/upload.wikimedia.org\/wikipedia\/commons\/thumb\/a\/aa\/Sadowara_Castle_2010.JPG\/50px-Sadowara_Castle_2010.JPG","kuni":"\u65e5\u5411\u56fd","gun":"\u90a3\u73c2\u90e1","title_en":"Satohara Castle"},"geometry":{"type":"Point","coordinates":[131.42383333,32.04783333]}},{"type":"Feature","properties":{"title":"\u4f50\u6577\u57ce (\u7409\u7403\u56fd)","thumbnail":"https:\/\/upload.wikimedia.org\/wikipedia\/commons\/thumb\/b\/b5\/Sashiki_Castle_Site.jpg\/50px-Sashiki_Castle_Site.jpg","kuni":null,"gun":null,"title_en":"Sashiki Castle (Ryukyu Kingdom)"},"geometry":{"type":"Point","coordinates":[127.78952778,26.16244444]}},{"type":"Feature","properties":{"title":"\u4f50\u6577\u57ce (\u80a5\u5f8c\u56fd)","thumbnail":"https:\/\/upload.wikimedia.org\/wikipedia\/commons\/thumb\/1\/11\/Map_of_Kumamoto_Prefecture_Ja.svg\/50px-Map_of_Kumamoto_Prefecture_Ja.svg.png","kuni":"\u80a5\u5f8c\u56fd","gun":"\u8466\u5317\u90e1","title_en":"Sashiki Castle (Higo Province)"},"geometry":{"type":"Point","coordinates":[130.51630556,32.30305556]}},{"type":"Feature","properties":{"title":"\u4f50\u6771\u9280\u5c71\u57ce","thumbnail":"https:\/\/upload.wikimedia.org\/wikipedia\/commons\/thumb\/c\/c3\/Satoukanayamajou01.JPG\/50px-Satoukanayamajou01.JPG","kuni":"\u5b89\u82b8\u56fd","gun":"\u6cbc\u7530\u90e1","title_en":"Sato Ginzan Castle"},"geometry":{"type":"Point","coordinates":[132.44852,34.456]}},{"type":"Feature","properties":{"title":"\u4f50\u6cbc\u57ce","thumbnail":"https:\/\/upload.wikimedia.org\/wikipedia\/commons\/thumb\/9\/92\/Map_of_Miyagi_Prefecture_Ja.svg\/50px-Map_of_Miyagi_Prefecture_Ja.svg.png","kuni":"\u9678\u5965\u56fd","gun":"\u6817\u539f\u90e1","title_en":"Sanuma Castle"},"geometry":{"type":"Point","coordinates":[141.19582222,38.694575]}},{"type":"Feature","properties":{"title":"\u4f50\u8cc0\u57ce","thumbnail":"https:\/\/upload.wikimedia.org\/wikipedia\/commons\/thumb\/0\/0a\/Shachinomon_Gate_and_site_of_Tenshu_of_Saga_Castle.jpg\/50px-Shachinomon_Gate_and_site_of_Tenshu_of_Saga_Castle.jpg","kuni":"\u80a5\u524d\u56fd","gun":"\u4f50\u8cc0\u90e1","title_en":"Saga Castle"},"geometry":{"type":"Point","coordinates":[130.302125,33.24574722]}},{"type":"Feature","properties":{"title":"\u4f50\u91ce\u57ce","thumbnail":"https:\/\/upload.wikimedia.org\/wikipedia\/commons\/thumb\/f\/fc\/Sano_Shiroyama_Park.JPG\/50px-Sano_Shiroyama_Park.JPG","kuni":"\u4e0b\u91ce\u56fd","gun":"\u5b89\u8607\u90e1","title_en":"Sano Castle"},"geometry":{"type":"Point","coordinates":[139.57916667,36.31916667]}},{"type":"Feature","properties":{"title":"\u4f5c\u5c71\u57ce","thumbnail":"https:\/\/upload.wikimedia.org\/wikipedia\/commons\/thumb\/4\/46\/Map_of_Kagawa_Prefecture_Ja.svg\/50px-Map_of_Kagawa_Prefecture_Ja.svg.png","kuni":"\u8b83\u5c90\u56fd","gun":"\u9999\u5ddd\u90e1","title_en":"fortresses"},"geometry":{"type":"Point","coordinates":[133.99805556,34.34388889]}},{"type":"Feature","properties":{"title":"\u4fe1\u8cb4\u5c71\u57ce","thumbnail":"https:\/\/upload.wikimedia.org\/wikipedia\/commons\/thumb\/e\/ec\/Map_of_Nara_Prefecture_Ja.svg\/50px-Map_of_Nara_Prefecture_Ja.svg.png","kuni":"\u5927\u548c\u56fd","gun":"\u5e73\u7fa4\u90e1","title_en":"Shungui Yamashiro"},"geometry":{"type":"Point","coordinates":[135.66833667,34.61273611]}},{"type":"Feature","properties":{"title":"\u5009\u8cc0\u91ce\u57ce","thumbnail":"https:\/\/upload.wikimedia.org\/wikipedia\/commons\/thumb\/b\/b5\/Map_of_Gunma_Prefecture_Ja.svg\/50px-Map_of_Gunma_Prefecture_Ja.svg.png","kuni":"\u4e0a\u91ce\u56fd","gun":"\u7fa4\u99ac\u90e1","title_en":"Kuragano Castle"},"geometry":{"type":"Point","coordinates":[139.04527778,36.29416667]}},{"type":"Feature","properties":{"title":"\u5143\u6728\u5c71\u57ce","thumbnail":"","kuni":"\u6b66\u8535\u56fd","gun":"\u591a\u6469\u90e1","title_en":"Genmusan Castle"},"geometry":{"type":"Point","coordinates":[139.48194444,35.58527778]}},{"type":"Feature","properties":{"title":"\u5150\u5c71\u57ce","thumbnail":"https:\/\/upload.wikimedia.org\/wikipedia\/commons\/thumb\/7\/7e\/First_Moat_in_Koyama_castle.jpg\/50px-First_Moat_in_Koyama_castle.jpg","kuni":"\u4e0b\u91ce\u56fd","gun":"\u90fd\u8cc0\u90e1","title_en":"Kodama City"},"geometry":{"type":"Point","coordinates":[139.85239167,36.44785]}},{"type":"Feature","properties":{"title":"\u516b\u4ee3\u57ce","thumbnail":"https:\/\/upload.wikimedia.org\/wikipedia\/commons\/thumb\/7\/74\/Yatsushiro_castle.JPG\/50px-Yatsushiro_castle.JPG","kuni":"\u80a5\u5f8c\u56fd","gun":"\u516b\u4ee3\u90e1","title_en":"Yashiro township in central Japan"},"geometry":{"type":"Point","coordinates":[130.59989167,32.50745556]}},{"type":"Feature","properties":{"title":"\u516b\u6238\u57ce","thumbnail":"https:\/\/upload.wikimedia.org\/wikipedia\/commons\/thumb\/c\/c5\/Hachinohe_castle.jpg\/50px-Hachinohe_castle.jpg","kuni":"\u9678\u5965\u56fd","gun":"\u4e09\u6238\u90e1","title_en":"Hachinohe Castle"},"geometry":{"type":"Point","coordinates":[141.48786111,40.514]}},{"type":"Feature","properties":{"title":"\u516b\u6728\u5ca1\u57ce","thumbnail":"https:\/\/upload.wikimedia.org\/wikipedia\/commons\/thumb\/1\/1e\/Map_of_Tochigi_Prefecture_Ja.svg\/50px-Map_of_Tochigi_Prefecture_Ja.svg.png","kuni":"\u4e0b\u91ce\u56fd","gun":"\u82b3\u8cc0\u90e1","title_en":"Yagioka Castle"},"geometry":{"type":"Point","coordinates":[139.99,36.41694444]}},{"type":"Feature","properties":{"title":"\u516b\u6a4b\u57ce","thumbnail":"https:\/\/upload.wikimedia.org\/wikipedia\/commons\/thumb\/f\/f7\/Hill-of-Yabase-Castle-Tottori-2013071401.jpg\/50px-Hill-of-Yabase-Castle-Tottori-2013071401.jpg","kuni":"\u4f2f\u8006\u56fd","gun":"\u516b\u6a4b\u90e1","title_en":"Yatsuhashi Castle"},"geometry":{"type":"Point","coordinates":[133.67327778,35.5035]}},{"type":"Feature","properties":{"title":"\u516b\u738b\u5b50\u57ce","thumbnail":"https:\/\/upload.wikimedia.org\/wikipedia\/commons\/thumb\/e\/ea\/Hachioji_Castle_Hikibashi.JPG\/50px-Hachioji_Castle_Hikibashi.JPG","kuni":"\u6b66\u8535\u56fd","gun":"\u591a\u6469\u90e1","title_en":"Hachioji Castle"},"geometry":{"type":"Point","coordinates":[139.25211389,35.65293333]}},{"type":"Feature","properties":{"title":"\u5177\u5fd7\u5ddd\u57ce (\u4e45\u7c73\u5cf6\u753a)","thumbnail":"https:\/\/upload.wikimedia.org\/wikipedia\/commons\/thumb\/1\/1b\/Gthumb.svg\/50px-Gthumb.svg.png","kuni":null,"gun":null,"title_en":"Gushikawa Castle (Kumejima Town)"},"geometry":{"type":"Point","coordinates":[126.75111111,26.38333333]}},{"type":"Feature","properties":{"title":"\u5177\u5fd7\u5ddd\u57ce (\u7cf8\u6e80\u5e02)","thumbnail":"https:\/\/upload.wikimedia.org\/wikipedia\/commons\/thumb\/8\/84\/Historic_sites_of_Gushikawa_Castle_01_at_Itoman_city.JPG\/50px-Historic_sites_of_Gushikawa_Castle_01_at_Itoman_city.JPG","kuni":null,"gun":null,"title_en":"Gushikawa Castle (Itoman City)"},"geometry":{"type":"Point","coordinates":[127.66436111,26.0805]}},{"type":"Feature","properties":{"title":"\u5185\u6c60\u9928","thumbnail":"https:\/\/upload.wikimedia.org\/wikipedia\/commons\/thumb\/a\/a9\/%E5%86%85%E6%B1%A0%E9%A4%A81.jpg\/50px-%E5%86%85%E6%B1%A0%E9%A4%A81.jpg","kuni":"\u4fe1\u6fc3\u56fd","gun":"\u9ad8\u4e95\u90e1","title_en":"Inner Pool Pavilion"},"geometry":{"type":"Point","coordinates":[138.58377778,36.97930556]}},{"type":"Feature","properties":{"title":"\u51fa\u5cf6","thumbnail":"https:\/\/upload.wikimedia.org\/wikipedia\/commons\/thumb\/5\/50\/Plattegrond_van_Deshima.jpg\/50px-Plattegrond_van_Deshima.jpg","kuni":"\u80a5\u524d\u56fd","gun":"\u5f7c\u6775\u90e1","title_en":"leave the island"},"geometry":{"type":"Point","coordinates":[129.87301944,32.74351944]}},{"type":"Feature","properties":{"title":"\u5208\u8c37\u57ce","thumbnail":"https:\/\/upload.wikimedia.org\/wikipedia\/commons\/thumb\/b\/be\/140112Kijo_Park_Kariya_Aichi_pref_Japan01s5.jpg\/50px-140112Kijo_Park_Kariya_Aichi_pref_Japan01s5.jpg","kuni":"\u4e09\u6cb3\u56fd","gun":"\u78a7\u6d77\u90e1","title_en":"Kariya Castle"},"geometry":{"type":"Point","coordinates":[136.98522222,34.98936111]}},{"type":"Feature","properties":{"title":"\u524d\u6a4b\u57ce","thumbnail":"https:\/\/upload.wikimedia.org\/wikipedia\/commons\/thumb\/3\/3f\/Maebashi_Castle_air.jpg\/50px-Maebashi_Castle_air.jpg","kuni":"\u4e0a\u91ce\u56fd","gun":"\u7fa4\u99ac\u90e1","title_en":"Maebashi Castle"},"geometry":{"type":"Point","coordinates":[139.06158056,36.39237222]}},{"type":"Feature","properties":{"title":"\u5263\u5409\u9928","thumbnail":"https:\/\/upload.wikimedia.org\/wikipedia\/commons\/thumb\/3\/3a\/Map_of_Aomori_Prefecture_Ja.svg\/50px-Map_of_Aomori_Prefecture_Ja.svg.png","kuni":"\u9678\u5965\u56fd","gun":"\u4e09\u6238\u90e1","title_en":"Kencikichikan (name of a kenjinkan)"},"geometry":{"type":"Point","coordinates":[141.341,40.44611111]}},{"type":"Feature","properties":{"title":"\u52a0\u53e4\u5ddd\u57ce","thumbnail":"https:\/\/upload.wikimedia.org\/wikipedia\/commons\/thumb\/b\/b2\/Shoumyouji_Kakogawa.jpg\/50px-Shoumyouji_Kakogawa.jpg","kuni":"\u64ad\u78e8\u56fd","gun":"\u5370\u5357\u90e1","title_en":"Kakogawa Castle"},"geometry":{"type":"Point","coordinates":[134.83066667,34.76855556]}},{"type":"Feature","properties":{"title":"\u52a0\u6cbb\u7530\u57ce","thumbnail":"https:\/\/upload.wikimedia.org\/wikipedia\/commons\/thumb\/a\/a8\/Map_of_Gifu_Prefecture_Ja.svg\/50px-Map_of_Gifu_Prefecture_Ja.svg.png","kuni":"\u7f8e\u6fc3\u56fd","gun":"\u52a0\u8302\u90e1","title_en":"Kashida Castle"},"geometry":{"type":"Point","coordinates":[136.99330556,35.49794444]}},{"type":"Feature","properties":{"title":"\u52dd\u5c3e\u57ce","thumbnail":"https:\/\/upload.wikimedia.org\/wikipedia\/commons\/thumb\/9\/91\/Map_of_Saga_Prefecture_Ja.svg\/50px-Map_of_Saga_Prefecture_Ja.svg.png","kuni":"\u80a5\u524d\u56fd","gun":"\u990a\u7236\u90e1","title_en":"Victory City"},"geometry":{"type":"Point","coordinates":[130.46505556,33.40205556]}},{"type":"Feature","properties":{"title":"\u52dd\u5c71\u57ce (\u4e0b\u91ce\u56fd)","thumbnail":"https:\/\/upload.wikimedia.org\/wikipedia\/commons\/thumb\/1\/1b\/Gthumb.svg\/50px-Gthumb.svg.png","kuni":"\u4e0b\u91ce\u56fd","gun":"\u5869\u8c37\u90e1","title_en":"Katsuyama Castle (Shimonokuni)"},"geometry":{"type":"Point","coordinates":[139.95475,36.66761111]}},{"type":"Feature","properties":{"title":"\u52dd\u5c71\u57ce (\u9577\u9580\u56fd)","thumbnail":"https:\/\/upload.wikimedia.org\/wikipedia\/commons\/thumb\/5\/59\/Shimonoseki_Mt.Katsuyama.JPG\/50px-Shimonoseki_Mt.Katsuyama.JPG","kuni":"\u9577\u9580\u56fd","gun":"\u8c4a\u6d66\u90e1","title_en":"Katsuyama Castle (Nagato-kuni)"},"geometry":{"type":"Point","coordinates":[130.97016667,34.03263889]}},{"type":"Feature","properties":{"title":"\u52dd\u672c\u57ce","thumbnail":"https:\/\/upload.wikimedia.org\/wikipedia\/commons\/thumb\/b\/b7\/Site_of_Katsumoto_Castle.jpg\/50px-Site_of_Katsumoto_Castle.jpg","kuni":"\u58f1\u5c90\u56fd","gun":"\u58f1\u5c90\u90e1","title_en":"Katsumoto Castle"},"geometry":{"type":"Point","coordinates":[129.69105556,33.84930556]}},{"type":"Feature","properties":{"title":"\u52dd\u8cc0\u57ce","thumbnail":"https:\/\/upload.wikimedia.org\/wikipedia\/commons\/thumb\/4\/46\/Map_of_Kagawa_Prefecture_Ja.svg\/50px-Map_of_Kagawa_Prefecture_Ja.svg.png","kuni":"\u8b83\u5c90\u56fd","gun":"\u9999\u5ddd\u90e1","title_en":"Katsuka castle"},"geometry":{"type":"Point","coordinates":[133.98063889,34.34052778]}},{"type":"Feature","properties":{"title":"\u52dd\u9023\u57ce","thumbnail":"https:\/\/upload.wikimedia.org\/wikipedia\/commons\/thumb\/7\/71\/Katsuren_Castle_ruins.jpg\/50px-Katsuren_Castle_ruins.jpg","kuni":null,"gun":null,"title_en":"Shengliancheng"},"geometry":{"type":"Point","coordinates":[127.87891667,26.33019444]}},{"type":"Feature","properties":{"title":"\u5317\u65b9\u57ce","thumbnail":"https:\/\/upload.wikimedia.org\/wikipedia\/commons\/thumb\/f\/fe\/Kitagata_joshi01.jpg\/50px-Kitagata_joshi01.jpg","kuni":"\u7f8e\u6fc3\u56fd","gun":"\u672c\u5de3\u90e1","title_en":"Norincheng, capital of Mongolia (Tw)"},"geometry":{"type":"Point","coordinates":[136.69169444,35.43705556]}},{"type":"Feature","properties":{"title":"\u5317\u6761\u57ce","thumbnail":"https:\/\/upload.wikimedia.org\/wikipedia\/commons\/thumb\/0\/04\/Kitajo_Castle_Honmaru_Ruins%2C_Kashiwazaki%2C_Niigata%2C_Japan%2C_November_2023.jpg\/50px-Kitajo_Castle_Honmaru_Ruins%2C_Kashiwazaki%2C_Niigata%2C_Japan%2C_November_2023.jpg","kuni":"\u8d8a\u5f8c\u56fd","gun":"\u5208\u7fbd\u90e1","title_en":"Hojo Castle"},"geometry":{"type":"Point","coordinates":[138.63396417,37.34001833]}},{"type":"Feature","properties":{"title":"\u5317\u7530\u57ce","thumbnail":"https:\/\/upload.wikimedia.org\/wikipedia\/commons\/thumb\/0\/06\/Ruins_of_Kitada_castle%2C_Yugawa%2C_Fukushima%2C_Japan%2C_November_2022.jpg\/50px-Ruins_of_Kitada_castle%2C_Yugawa%2C_Fukushima%2C_Japan%2C_November_2022.jpg","kuni":"\u9678\u5965\u56fd","gun":"\u6cb3\u6cbc\u90e1","title_en":"Kitanagi Castle"},"geometry":{"type":"Point","coordinates":[139.874,37.58127778]}},{"type":"Feature","properties":{"title":"\u5317\u8c37\u57ce","thumbnail":"https:\/\/upload.wikimedia.org\/wikipedia\/commons\/thumb\/4\/4e\/%E3%82%AD%E3%83%A3%E3%83%B3%E3%83%97%E7%91%9E%E6%85%B6%E8%A6%A7%EF%BC%88%E6%96%BD%E8%A8%AD%E6%8A%80%E8%A1%93%E9%83%A8%E5%9C%B0%E5%8C%BA%EF%BC%89.png\/50px-%E3%82%AD%E3%83%A3%E3%83%B3%E3%83%97%E7%91%9E%E6%85%B6%E8%A6%A7%EF%BC%88%E6%96%BD%E8%A8%AD%E6%8A%80%E8%A1%93%E9%83%A8%E5%9C%B0%E5%8C%BA%EF%BC%89.png","kuni":null,"gun":null,"title_en":"Beigucheng (city in North Korea)"},"geometry":{"type":"Point","coordinates":[127.76494444,26.30872222]}},{"type":"Feature","properties":{"title":"\u5341\u4e03\u6761\u57ce","thumbnail":"https:\/\/upload.wikimedia.org\/wikipedia\/commons\/thumb\/a\/a8\/Map_of_Gifu_Prefecture_Ja.svg\/50px-Map_of_Gifu_Prefecture_Ja.svg.png","kuni":"\u7f8e\u6fc3\u56fd","gun":"\u672c\u5de3\u90e1","title_en":"Seventeen Stripes"},"geometry":{"type":"Point","coordinates":[136.65922222,35.4018]}},{"type":"Feature","properties":{"title":"\u5341\u4e8c\u4e01\u76ee\u57ce","thumbnail":"https:\/\/upload.wikimedia.org\/wikipedia\/commons\/thumb\/a\/a0\/Map_of_Iwate_Prefecture_Ja.svg\/50px-Map_of_Iwate_Prefecture_Ja.svg.png","kuni":"\u9678\u5965\u56fd","gun":"\u7a17\u8cab\u90e1","title_en":"Twelfth Castle"},"geometry":{"type":"Point","coordinates":[141.12908333,39.36258333]}},{"type":"Feature","properties":{"title":"\u5341\u516b\u30f6\u57ce","thumbnail":"https:\/\/upload.wikimedia.org\/wikipedia\/commons\/thumb\/a\/a0\/Map_of_Iwate_Prefecture_Ja.svg\/50px-Map_of_Iwate_Prefecture_Ja.svg.png","kuni":"\u9678\u5965\u56fd","gun":"\u7a17\u8cab\u90e1","title_en":"Eighteen-gauge city"},"geometry":{"type":"Point","coordinates":[141.12119444,39.40894444]}},{"type":"Feature","properties":{"title":"\u5343\u4ee3\u30f6\u69d8\u57ce","thumbnail":"https:\/\/upload.wikimedia.org\/wikipedia\/commons\/thumb\/c\/c5\/Chiyogatameshi_castle.JPG\/50px-Chiyogatameshi_castle.JPG","kuni":"\u8d8a\u4e2d\u56fd","gun":"\u792a\u6ce2\u90e1","title_en":"Chiyogasama Castle"},"geometry":{"type":"Point","coordinates":[136.99777778,36.58138889]}},{"type":"Feature","properties":{"title":"\u5343\u5fb3\u57ce","thumbnail":"https:\/\/upload.wikimedia.org\/wikipedia\/commons\/thumb\/a\/a0\/Map_of_Iwate_Prefecture_Ja.svg\/50px-Map_of_Iwate_Prefecture_Ja.svg.png","kuni":"\u9678\u5965\u56fd","gun":"\u9589\u4f0a\u90e1","title_en":"Senkoku Castle"},"geometry":{"type":"Point","coordinates":[141.92333333,39.63805556]}},{"type":"Feature","properties":{"title":"\u5343\u65e9\u57ce","thumbnail":"https:\/\/upload.wikimedia.org\/wikipedia\/commons\/thumb\/4\/43\/%E5%8D%83%E6%97%A9%E5%9F%8E%E5%9D%80%E3%81%AE%E7%A2%91.JPG\/50px-%E5%8D%83%E6%97%A9%E5%9F%8E%E5%9D%80%E3%81%AE%E7%A2%91.JPG","kuni":"\u6cb3\u5185\u56fd","gun":"\u77f3\u5ddd\u90e1","title_en":"Chissoon City, capital of Japan (Tw)"},"geometry":{"type":"Point","coordinates":[135.65119722,34.417225]}},{"type":"Feature","properties":{"title":"\u5343\u672c\u57ce (\u4e0a\u7dcf\u56fd)","thumbnail":"https:\/\/upload.wikimedia.org\/wikipedia\/commons\/thumb\/8\/86\/Map_of_Chiba_Prefecture_Ja.svg\/50px-Map_of_Chiba_Prefecture_Ja.svg.png","kuni":"\u4e0a\u7dcf\u56fd","gun":"\u671b\u9640\u90e1","title_en":"Senbon Castle (Joso Province)"},"geometry":{"type":"Point","coordinates":[140.07,35.25722222]}},{"type":"Feature","properties":{"title":"\u5343\u672c\u57ce (\u4e0b\u91ce\u56fd)","thumbnail":"https:\/\/upload.wikimedia.org\/wikipedia\/commons\/thumb\/1\/1e\/Map_of_Tochigi_Prefecture_Ja.svg\/50px-Map_of_Tochigi_Prefecture_Ja.svg.png","kuni":"\u4e0b\u91ce\u56fd","gun":"\u82b3\u8cc0\u90e1","title_en":"Chihonjo (Shimonokuni)"},"geometry":{"type":"Point","coordinates":[140.14888889,36.57722222]}},{"type":"Feature","properties":{"title":"\u5357\u90e8\u9663\u5c4b","thumbnail":"https:\/\/upload.wikimedia.org\/wikipedia\/commons\/thumb\/8\/87\/Hokkaid%C5%8D_g%C3%A9olocalisation.svg\/50px-Hokkaid%C5%8D_g%C3%A9olocalisation.svg.png","kuni":null,"gun":null,"title_en":"Southern\u9663\u5c4b"},"geometry":{"type":"Point","coordinates":[140.71472222,41.76138889]}},{"type":"Feature","properties":{"title":"\u539f\u57ce","thumbnail":"https:\/\/upload.wikimedia.org\/wikipedia\/commons\/thumb\/7\/79\/Remains_of_Hara_castle.jpg\/50px-Remains_of_Hara_castle.jpg","kuni":"\u80a5\u524d\u56fd","gun":"\u9ad8\u6765\u90e1","title_en":"former city"},"geometry":{"type":"Point","coordinates":[130.25647222,32.63330556]}},{"type":"Feature","properties":{"title":"\u53a8\u5ddd\u67f5","thumbnail":"https:\/\/upload.wikimedia.org\/wikipedia\/commons\/thumb\/9\/98\/NDL-DC_762376_0222_0024crd-KuriyagawaSaku.jpg\/50px-NDL-DC_762376_0222_0024crd-KuriyagawaSaku.jpg","kuni":"\u9678\u5965\u56fd","gun":"\u5ca9\u624b\u90e1","title_en":"fence made from disused ship planks and used to conceal the entrance to the main hall of a temple (esp. the imperial palace)"},"geometry":{"type":"Point","coordinates":[141.12122222,39.71227778]}},{"type":"Feature","properties":{"title":"\u53e4\u56fd\u5e9c\u57ce","thumbnail":"https:\/\/upload.wikimedia.org\/wikipedia\/commons\/thumb\/2\/29\/Hurukokuhu_castle_kodou.jpg\/50px-Hurukokuhu_castle_kodou.jpg","kuni":"\u8d8a\u4e2d\u56fd","gun":"\u5c04\u6c34\u90e1","title_en":"prefectural seat of the prefectural government (old)"},"geometry":{"type":"Point","coordinates":[137.05275,36.79308333]}},{"type":"Feature","properties":{"title":"\u53e4\u5bae\u57ce","thumbnail":"https:\/\/upload.wikimedia.org\/wikipedia\/commons\/thumb\/8\/80\/Furumiya_Castle4.jpg\/50px-Furumiya_Castle4.jpg","kuni":"\u4e09\u6cb3\u56fd","gun":"\u8a2d\u697d\u90e1","title_en":"old imperial palace"},"geometry":{"type":"Point","coordinates":[137.42755556,34.97244444]}},{"type":"Feature","properties":{"title":"\u53e4\u5c71\u57ce (\u4e0b\u91ce\u56fd)","thumbnail":"https:\/\/upload.wikimedia.org\/wikipedia\/commons\/thumb\/1\/1e\/Map_of_Tochigi_Prefecture_Ja.svg\/50px-Map_of_Tochigi_Prefecture_Ja.svg.png","kuni":"\u4e0b\u91ce\u56fd","gun":"\u6cb3\u5185\u90e1","title_en":"Furuyama Castle (Shimonokuni)"},"geometry":{"type":"Point","coordinates":[139.80972222,36.72888889]}},{"type":"Feature","properties":{"title":"\u53e4\u5c71\u57ce (\u4fe1\u6fc3\u56fd)","thumbnail":"https:\/\/upload.wikimedia.org\/wikipedia\/commons\/thumb\/8\/82\/Map_of_Nagano_Prefecture_Ja.svg\/50px-Map_of_Nagano_Prefecture_Ja.svg.png","kuni":"\u4fe1\u6fc3\u56fd","gun":"\u6c34\u5185\u90e1","title_en":"Furuyama Castle (Shinano Koku)"},"geometry":{"type":"Point","coordinates":[137.94480556,36.62169444]}},{"type":"Feature","properties":{"title":"\u53e4\u6cb3\u57ce","thumbnail":"https:\/\/upload.wikimedia.org\/wikipedia\/commons\/thumb\/7\/7a\/Koga_castle_suwakuruwa_dorui_hori.jpg\/50px-Koga_castle_suwakuruwa_dorui_hori.jpg","kuni":"\u4e0b\u7dcf\u56fd","gun":"\u845b\u98fe\u90e1","title_en":"Old River City"},"geometry":{"type":"Point","coordinates":[139.69548611,36.18687778]}},{"type":"Feature","properties":{"title":"\u53e4\u9e93\u57ce","thumbnail":"https:\/\/upload.wikimedia.org\/wikipedia\/commons\/thumb\/d\/d2\/Huruhumoto_jou.jpg\/50px-Huruhumoto_jou.jpg","kuni":"\u80a5\u5f8c\u56fd","gun":"\u516b\u4ee3\u90e1","title_en":"Gululu city in Shanxi (formerly Fucheng county)"},"geometry":{"type":"Point","coordinates":[130.63861111,32.48944444]}},{"type":"Feature","properties":{"title":"\u53f3\u7530\u30f6\u5cb3\u57ce","thumbnail":"https:\/\/upload.wikimedia.org\/wikipedia\/commons\/thumb\/5\/5f\/Migitagatake01.jpg\/50px-Migitagatake01.jpg","kuni":"\u5468\u9632\u56fd","gun":"\u4f50\u6ce2\u90e1","title_en":"Udagatake Castle"},"geometry":{"type":"Point","coordinates":[131.55694444,34.08652778]}},{"type":"Feature","properties":{"title":"\u5409\u5099\u6d25\u795e\u793e (\u798f\u5c71\u5e02)","thumbnail":"https:\/\/upload.wikimedia.org\/wikipedia\/commons\/thumb\/d\/de\/Kibitsu_shurine01.JPG\/50px-Kibitsu_shurine01.JPG","kuni":"\u5099\u5f8c\u56fd","gun":"\u54c1\u6cbb\u90e1","title_en":"Yoshimizu Shrine (Fukuyama City)"},"geometry":{"type":"Point","coordinates":[133.27106944,34.56933611]}},{"type":"Feature","properties":{"title":"\u5409\u7530\u57ce (\u4e09\u6cb3\u56fd)","thumbnail":"https:\/\/upload.wikimedia.org\/wikipedia\/commons\/thumb\/b\/b0\/Yoshida_Castle_%28Aichi%29_3.jpg\/50px-Yoshida_Castle_%28Aichi%29_3.jpg","kuni":"\u4e09\u6cb3\u56fd","gun":"\u6e25\u7f8e\u90e1","title_en":"Yoshida Castle (Mikawa Province)"},"geometry":{"type":"Point","coordinates":[137.39335,34.77014722]}},{"type":"Feature","properties":{"title":"\u5409\u7530\u90e1\u5c71\u57ce","thumbnail":"https:\/\/upload.wikimedia.org\/wikipedia\/commons\/thumb\/7\/72\/Ruins_of_koriyamajo.jpg\/50px-Ruins_of_koriyamajo.jpg","kuni":"\u5b89\u82b8\u56fd","gun":"\u9ad8\u7530\u90e1","title_en":"Yoshida-gunyan Castle"},"geometry":{"type":"Point","coordinates":[132.70958889,34.67428611]}},{"type":"Feature","properties":{"title":"\u5409\u826f\u57ce","thumbnail":"https:\/\/upload.wikimedia.org\/wikipedia\/commons\/thumb\/2\/23\/Map_of_Kochi_Prefecture_Ja.svg\/50px-Map_of_Kochi_Prefecture_Ja.svg.png","kuni":"\u571f\u4f50\u56fd","gun":"\u543e\u5ddd\u90e1","title_en":"Kuala Lumpur"},"geometry":{"type":"Point","coordinates":[133.45861111,33.51238889]}},{"type":"Feature","properties":{"title":"\u5409\u91ce\u30f6\u91cc\u907a\u8de1","thumbnail":"https:\/\/upload.wikimedia.org\/wikipedia\/commons\/thumb\/3\/38\/Yoshinogari-iseki_zenkei.JPG\/50px-Yoshinogari-iseki_zenkei.JPG","kuni":"\u80a5\u524d\u56fd","gun":"\u795e\u57fc\u90e1","title_en":"Yoshinogari Ruins"},"geometry":{"type":"Point","coordinates":[130.39069444,33.32361111]}},{"type":"Feature","properties":{"title":"\u540d\u53e4\u5c4b\u57ce","thumbnail":"https:\/\/upload.wikimedia.org\/wikipedia\/commons\/thumb\/5\/56\/Nagoya_Castle_7.jpg\/50px-Nagoya_Castle_7.jpg","kuni":"\u5c3e\u5f35\u56fd","gun":"\u611b\u77e5\u90e1","title_en":"Nagoya Castle"},"geometry":{"type":"Point","coordinates":[136.89908611,35.18549167]}},{"type":"Feature","properties":{"title":"\u540d\u5b50\u57ce","thumbnail":"https:\/\/upload.wikimedia.org\/wikipedia\/commons\/thumb\/8\/82\/Map_of_Nagano_Prefecture_Ja.svg\/50px-Map_of_Nagano_Prefecture_Ja.svg.png","kuni":"\u4fe1\u6fc3\u56fd","gun":"\u4f0a\u90a3\u90e1","title_en":"name of the city in ancient China (often referred to as \"Nagoya\" or \"Meiko\")"},"geometry":{"type":"Point","coordinates":[137.90291667,35.59988889]}},{"type":"Feature","properties":{"title":"\u540d\u7551\u57ce","thumbnail":"https:\/\/upload.wikimedia.org\/wikipedia\/commons\/thumb\/a\/a6\/Map_of_Toyama_Prefecture_Ja.svg\/50px-Map_of_Toyama_Prefecture_Ja.svg.png","kuni":"\u8d8a\u4e2d\u56fd","gun":"\u792a\u6ce2\u90e1","title_en":"Meibata City"},"geometry":{"type":"Point","coordinates":[136.86194444,36.62055556]}},{"type":"Feature","properties":{"title":"\u540d\u80e1\u6843\u57ce","thumbnail":"https:\/\/upload.wikimedia.org\/wikipedia\/commons\/thumb\/0\/07\/Nagurumijyo.jpg\/50px-Nagurumijyo.jpg","kuni":"\u4e0a\u91ce\u56fd","gun":"\u5229\u6839\u90e1","title_en":"Named Walnut City"},"geometry":{"type":"Point","coordinates":[138.99233333,36.67005556]}},{"type":"Feature","properties":{"title":"\u540d\u8b77\u5c4b\u57ce","thumbnail":"https:\/\/upload.wikimedia.org\/wikipedia\/commons\/thumb\/1\/18\/NagoyaC_hommaru.jpg\/50px-NagoyaC_hommaru.jpg","kuni":"\u80a5\u524d\u56fd","gun":"\u677e\u6d66\u90e1","title_en":"Named Nursing Home City"},"geometry":{"type":"Point","coordinates":[129.869375,33.53003333]}},{"type":"Feature","properties":{"title":"\u5411\u5c0f\u5cf6\u57ce","thumbnail":"https:\/\/upload.wikimedia.org\/wikipedia\/commons\/thumb\/a\/a8\/Map_of_Gifu_Prefecture_Ja.svg\/50px-Map_of_Gifu_Prefecture_Ja.svg.png","kuni":"\u98db\u9a52\u56fd","gun":"\u5409\u57ce\u90e1","title_en":"To Kojima City"},"geometry":{"type":"Point","coordinates":[137.13219444,36.25119444]}},{"type":"Feature","properties":{"title":"\u548c\u4f50\u5c71\u57ce","thumbnail":"https:\/\/upload.wikimedia.org\/wikipedia\/commons\/thumb\/9\/90\/Map_of_Wakayama_Prefecture_Ja.svg\/50px-Map_of_Wakayama_Prefecture_Ja.svg.png","kuni":"\u7d00\u4f0a\u56fd","gun":"\u540d\u8349\u90e1","title_en":"Wakayama Castle"},"geometry":{"type":"Point","coordinates":[135.25994444,34.22969444]}},{"type":"Feature","properties":{"title":"\u548c\u5fb3\u57ce","thumbnail":"https:\/\/upload.wikimedia.org\/wikipedia\/commons\/thumb\/3\/3a\/Map_of_Aomori_Prefecture_Ja.svg\/50px-Map_of_Aomori_Prefecture_Ja.svg.png","kuni":"\u9678\u5965\u56fd","gun":"\u6d25\u8efd\u90e1","title_en":"Waktek Castle"},"geometry":{"type":"Point","coordinates":[140.48369444,40.60944444]}},{"type":"Feature","properties":{"title":"\u548c\u6b4c\u5c71\u57ce","thumbnail":"https:\/\/upload.wikimedia.org\/wikipedia\/commons\/thumb\/7\/77\/Wakayama_Castle%2C_tenshu-2.jpg\/50px-Wakayama_Castle%2C_tenshu-2.jpg","kuni":"\u7d00\u4f0a\u56fd","gun":"\u540d\u8349\u90e1","title_en":"Wakayama Castle"},"geometry":{"type":"Point","coordinates":[135.17162222,34.22762778]}},{"type":"Feature","properties":{"title":"\u5510\u6ca2\u5c71\u57ce","thumbnail":"https:\/\/upload.wikimedia.org\/wikipedia\/commons\/thumb\/6\/63\/Karasawayama_Shrine.JPG\/50px-Karasawayama_Shrine.JPG","kuni":"\u4e0b\u91ce\u56fd","gun":"\u5b89\u8607\u90e1","title_en":"mountain castle in Karasawa"},"geometry":{"type":"Point","coordinates":[139.60094444,36.35363889]}},{"type":"Feature","properties":{"title":"\u5510\u6d25\u57ce","thumbnail":"https:\/\/upload.wikimedia.org\/wikipedia\/commons\/thumb\/d\/d6\/%E5%94%90%E6%B4%A5%E5%9F%8E_-_panoramio.jpg\/50px-%E5%94%90%E6%B4%A5%E5%9F%8E_-_panoramio.jpg","kuni":"\u80a5\u524d\u56fd","gun":"\u677e\u6d66\u90e1","title_en":"Tangjin City"},"geometry":{"type":"Point","coordinates":[129.97819444,33.45353889]}},{"type":"Feature","properties":{"title":"\u559c\u9023\u5ddd\u57ce","thumbnail":"https:\/\/upload.wikimedia.org\/wikipedia\/commons\/thumb\/1\/14\/Ruins_of_Kitsuregawa_Castle.JPG\/50px-Ruins_of_Kitsuregawa_Castle.JPG","kuni":"\u4e0b\u91ce\u56fd","gun":"\u5869\u8c37\u90e1","title_en":"Kirengawa Castle"},"geometry":{"type":"Point","coordinates":[140.0225,36.71833333]}},{"type":"Feature","properties":{"title":"\u56fd\u5206\u57ce (\u5927\u9685\u56fd)","thumbnail":"https:\/\/upload.wikimedia.org\/wikipedia\/commons\/thumb\/6\/6f\/Kokubu_Castle_%28Osumi%29%2C_gaikan.jpg\/50px-Kokubu_Castle_%28Osumi%29%2C_gaikan.jpg","kuni":"\u5927\u9685\u56fd","gun":"\u56ce\u5539\u90e1","title_en":"Kokubu Castle (Osumi Province)"},"geometry":{"type":"Point","coordinates":[130.77363889,31.74061111]}},{"type":"Feature","properties":{"title":"\u571f\u6c17\u57ce","thumbnail":"https:\/\/upload.wikimedia.org\/wikipedia\/commons\/thumb\/4\/4a\/Toke_Castle.jpg\/50px-Toke_Castle.jpg","kuni":"\u4e0a\u7dcf\u56fd","gun":"\u5c71\u8fba\u90e1","title_en":"Tsuchi Castle"},"geometry":{"type":"Point","coordinates":[140.29137222,35.53106389]}},{"type":"Feature","properties":{"title":"\u571f\u6d66\u57ce","thumbnail":"https:\/\/upload.wikimedia.org\/wikipedia\/commons\/thumb\/8\/80\/Tsuchiura_castle_gate001.jpg\/50px-Tsuchiura_castle_gate001.jpg","kuni":"\u5e38\u9678\u56fd","gun":"\u65b0\u6cbb\u90e1","title_en":"Tupou city in North Korea"},"geometry":{"type":"Point","coordinates":[140.19814722,36.08510278]}},{"type":"Feature","properties":{"title":"\u5742\u672c\u57ce","thumbnail":"https:\/\/upload.wikimedia.org\/wikipedia\/commons\/thumb\/a\/a8\/Map_of_Shiga_Prefecture_Ja.svg\/50px-Map_of_Shiga_Prefecture_Ja.svg.png","kuni":"\u8fd1\u6c5f\u56fd","gun":"\u6ecb\u8cc0\u90e1","title_en":"Sakamoto Castle"},"geometry":{"type":"Point","coordinates":[135.87715111,35.05982611]}},{"type":"Feature","properties":{"title":"\u57a3\u82b1\u57ce","thumbnail":"","kuni":null,"gun":null,"title_en":"mossy old walled city"},"geometry":{"type":"Point","coordinates":[127.79,26.14833333]}},{"type":"Feature","properties":{"title":"\u57ce\u306e\u5742\u907a\u8de1","thumbnail":"https:\/\/upload.wikimedia.org\/wikipedia\/commons\/thumb\/a\/a8\/Map_of_Gifu_Prefecture_Ja.svg\/50px-Map_of_Gifu_Prefecture_Ja.svg.png","kuni":"\u7f8e\u6fc3\u56fd","gun":"\u571f\u5c90\u90e1","title_en":"ruins of a castle on a hill"},"geometry":{"type":"Point","coordinates":[137.11597222,35.32508333]}},{"type":"Feature","properties":{"title":"\u57ce\u751f\u57ce","thumbnail":"https:\/\/upload.wikimedia.org\/wikipedia\/commons\/thumb\/f\/f3\/Jouno_castle.JPG\/50px-Jouno_castle.JPG","kuni":"\u8d8a\u4e2d\u56fd","gun":"\u5a66\u8ca0\u90e1","title_en":"a city wallowing in its own city"},"geometry":{"type":"Point","coordinates":[137.17902778,36.57541667]}},{"type":"Feature","properties":{"title":"\u57ce\u7aef\u57ce","thumbnail":"https:\/\/upload.wikimedia.org\/wikipedia\/commons\/thumb\/c\/c7\/Manpukuji_sanmon.JPG\/50px-Manpukuji_sanmon.JPG","kuni":"\u8d8a\u4e2d\u56fd","gun":"\u792a\u6ce2\u90e1","title_en":"Chengdudu"},"geometry":{"type":"Point","coordinates":[136.90111111,36.51583333]}},{"type":"Feature","properties":{"title":"\u57ce\u8f2a\u67f5","thumbnail":"https:\/\/upload.wikimedia.org\/wikipedia\/commons\/thumb\/d\/da\/Kinowanosaku_East_Gate.jpg\/50px-Kinowanosaku_East_Gate.jpg","kuni":"\u51fa\u7fbd\u56fd","gun":"\u98fd\u6d77\u90e1","title_en":"City Grille"},"geometry":{"type":"Point","coordinates":[139.90922222,38.96361111]}},{"type":"Feature","properties":{"title":"\u57f4\u539f\u57ce","thumbnail":"https:\/\/upload.wikimedia.org\/wikipedia\/commons\/thumb\/3\/3b\/Haibarajyo.jpg\/50px-Haibarajyo.jpg","kuni":"\u4fe1\u6fc3\u56fd","gun":"\u7b51\u6469\u90e1","title_en":"soil with large clay content"},"geometry":{"type":"Point","coordinates":[138.01580556,36.18869444]}},{"type":"Feature","properties":{"title":"\u57fa\u8084\u57ce","thumbnail":"https:\/\/upload.wikimedia.org\/wikipedia\/commons\/thumb\/d\/d0\/%E5%9F%BA%E5%B1%B1%E5%B1%B1%E9%A0%82%E9%83%A8%E5%9C%9F%E5%A1%811.JPG\/50px-%E5%9F%BA%E5%B1%B1%E5%B1%B1%E9%A0%82%E9%83%A8%E5%9C%9F%E5%A1%811.JPG","kuni":"\u80a5\u524d\u56fd","gun":"\u57fa\u8084\u90e1","title_en":"Chinatown"},"geometry":{"type":"Point","coordinates":[130.51305556,33.445]}},{"type":"Feature","properties":{"title":"\u5802\u6d1e\u57ce","thumbnail":"https:\/\/upload.wikimedia.org\/wikipedia\/commons\/thumb\/a\/a8\/Map_of_Gifu_Prefecture_Ja.svg\/50px-Map_of_Gifu_Prefecture_Ja.svg.png","kuni":"\u7f8e\u6fc3\u56fd","gun":"\u52a0\u8302\u90e1","title_en":"Tongdongsong, South Korean rocket series"},"geometry":{"type":"Point","coordinates":[137.00044444,35.48519444]}},{"type":"Feature","properties":{"title":"\u5805\u5fd7\u7530\u57ce","thumbnail":"","kuni":"\u80a5\u5f8c\u56fd","gun":"\u4e0b\u76ca\u57ce\u90e1","title_en":"KINSHITA CITY"},"geometry":{"type":"Point","coordinates":[130.792592,32.62769]}},{"type":"Feature","properties":{"title":"\u5869\u7530\u57ce","thumbnail":"https:\/\/upload.wikimedia.org\/wikipedia\/commons\/thumb\/8\/82\/Map_of_Nagano_Prefecture_Ja.svg\/50px-Map_of_Nagano_Prefecture_Ja.svg.png","kuni":"\u4fe1\u6fc3\u56fd","gun":"\u5c0f\u770c\u90e1","title_en":"Shiota Castle"},"geometry":{"type":"Point","coordinates":[138.19605556,36.33969444]}},{"type":"Feature","properties":{"title":"\u5897\u5c3e\u57ce","thumbnail":"https:\/\/upload.wikimedia.org\/wikipedia\/commons\/thumb\/b\/bc\/Masuo_Castle_karabori.jpg\/50px-Masuo_Castle_karabori.jpg","kuni":"\u4e0b\u7dcf\u56fd","gun":"\u845b\u98fe\u90e1","title_en":"Masuo Castle"},"geometry":{"type":"Point","coordinates":[139.98437222,35.84038611]}},{"type":"Feature","properties":{"title":"\u58ec\u751f\u57ce","thumbnail":"https:\/\/upload.wikimedia.org\/wikipedia\/commons\/thumb\/5\/52\/Mibuj%C5%8D_honmaru_entrance.JPG\/50px-Mibuj%C5%8D_honmaru_entrance.JPG","kuni":"\u4e0b\u91ce\u56fd","gun":"\u90fd\u8cc0\u90e1","title_en":"Ilsan City, capital of Iceland (Tw)"},"geometry":{"type":"Point","coordinates":[139.79805556,36.4275]}},{"type":"Feature","properties":{"title":"\u591a\u529f\u57ce","thumbnail":"https:\/\/upload.wikimedia.org\/wikipedia\/commons\/thumb\/1\/1e\/Map_of_Tochigi_Prefecture_Ja.svg\/50px-Map_of_Tochigi_Prefecture_Ja.svg.png","kuni":"\u4e0b\u91ce\u56fd","gun":"\u6cb3\u5185\u90e1","title_en":"Dogong City, capital of North Korea (Tw)"},"geometry":{"type":"Point","coordinates":[139.87416667,36.43055556]}},{"type":"Feature","properties":{"title":"\u591a\u6c17\u57ce (\u4e0b\u91ce\u56fd)","thumbnail":"https:\/\/upload.wikimedia.org\/wikipedia\/commons\/thumb\/6\/6f\/%E5%A4%9A%E6%B0%97%E5%9F%8E%E8%B7%A1%E7%A2%91_-_panoramio.jpg\/50px-%E5%A4%9A%E6%B0%97%E5%9F%8E%E8%B7%A1%E7%A2%91_-_panoramio.jpg","kuni":"\u4e0b\u91ce\u56fd","gun":"\u6cb3\u5185\u90e1","title_en":"Taki Castle (Shimono-kuni)"},"geometry":{"type":"Point","coordinates":[139.80388889,36.605]}},{"type":"Feature","properties":{"title":"\u591a\u6c17\u57ce (\u5e38\u9678\u56fd)","thumbnail":"https:\/\/upload.wikimedia.org\/wikipedia\/commons\/thumb\/2\/2b\/Joyama_at_Hojo%2C_Tsukuba.jpg\/50px-Joyama_at_Hojo%2C_Tsukuba.jpg","kuni":"\u5e38\u9678\u56fd","gun":"\u7b51\u6ce2\u90e1","title_en":"Taki Castle (Hitachinaka Province)"},"geometry":{"type":"Point","coordinates":[140.08972222,36.18333333]}},{"type":"Feature","properties":{"title":"\u591a\u805e\u5c71\u57ce","thumbnail":"https:\/\/upload.wikimedia.org\/wikipedia\/commons\/thumb\/9\/91\/Tamonj3.jpg\/50px-Tamonj3.jpg","kuni":"\u5927\u548c\u56fd","gun":"\u6dfb\u4e0a\u90e1","title_en":"Mountain City of Toledo"},"geometry":{"type":"Point","coordinates":[135.83144194,34.69443889]}},{"type":"Feature","properties":{"title":"\u591a\u8cc0\u57ce","thumbnail":"https:\/\/upload.wikimedia.org\/wikipedia\/commons\/thumb\/8\/80\/Tagajo-ato_seiden-2.JPG\/50px-Tagajo-ato_seiden-2.JPG","kuni":"\u9678\u5965\u56fd","gun":"\u5bae\u57ce\u90e1","title_en":"Taga City"},"geometry":{"type":"Point","coordinates":[140.98833333,38.30666667]}},{"type":"Feature","properties":{"title":"\u5927\u5149\u5bfa\u57ce","thumbnail":"https:\/\/upload.wikimedia.org\/wikipedia\/commons\/thumb\/f\/f2\/Daikojijo.JPG\/50px-Daikojijo.JPG","kuni":"\u9678\u5965\u56fd","gun":"\u6d25\u8efd\u90e1","title_en":"Daikoji Castle"},"geometry":{"type":"Point","coordinates":[140.55744444,40.59005556]}},{"type":"Feature","properties":{"title":"\u5927\u53cb\u6c0f\u907a\u8de1","thumbnail":"https:\/\/upload.wikimedia.org\/wikipedia\/commons\/thumb\/a\/ae\/Map_of_Oita_Prefecture_Ja.svg\/50px-Map_of_Oita_Prefecture_Ja.svg.png","kuni":"\u8c4a\u5f8c\u56fd","gun":"\u5927\u5206\u90e1","title_en":"Otomo Clan Ruins"},"geometry":{"type":"Point","coordinates":[131.61919444,33.22894444]}},{"type":"Feature","properties":{"title":"\u5927\u53e3\u57ce","thumbnail":"https:\/\/upload.wikimedia.org\/wikipedia\/commons\/thumb\/8\/84\/Location_map_of_Kagoshima.svg\/50px-Location_map_of_Kagoshima.svg.png","kuni":"\u85a9\u6469\u56fd","gun":"\u4f0a\u4f50\u90e1","title_en":"Taguchi City"},"geometry":{"type":"Point","coordinates":[130.61669444,32.05905556]}},{"type":"Feature","properties":{"title":"\u5927\u5411\u9928","thumbnail":"https:\/\/upload.wikimedia.org\/wikipedia\/commons\/thumb\/3\/3a\/Map_of_Aomori_Prefecture_Ja.svg\/50px-Map_of_Aomori_Prefecture_Ja.svg.png","kuni":"\u9678\u5965\u56fd","gun":"\u4e09\u6238\u90e1","title_en":"Omotokan"},"geometry":{"type":"Point","coordinates":[141.27908333,40.40255556]}},{"type":"Feature","properties":{"title":"\u5927\u5742\u57ce","thumbnail":"https:\/\/upload.wikimedia.org\/wikipedia\/commons\/thumb\/e\/e4\/Osaka_Castle_02bs3200.jpg\/50px-Osaka_Castle_02bs3200.jpg","kuni":"\u6442\u6d25\u56fd","gun":"\u6771\u6210\u90e1","title_en":"Osaka city"},"geometry":{"type":"Point","coordinates":[135.52584444,34.68737778]}},{"type":"Feature","properties":{"title":"\u5927\u57a3\u57ce","thumbnail":"https:\/\/upload.wikimedia.org\/wikipedia\/commons\/thumb\/5\/54\/Old_Ogaki_Castle_in_1933.jpg\/50px-Old_Ogaki_Castle_in_1933.jpg","kuni":"\u7f8e\u6fc3\u56fd","gun":"\u5b89\u516b\u90e1","title_en":"Ogaki City"},"geometry":{"type":"Point","coordinates":[136.61607222,35.36197778]}},{"type":"Feature","properties":{"title":"\u5927\u585a\u30fb\u6b73\u52dd\u571f\u907a\u8de1","thumbnail":"https:\/\/upload.wikimedia.org\/wikipedia\/commons\/thumb\/5\/5d\/Otsuka-Saikachido_Site%2C_Otsuka_Site%2C_gaikan-4.jpg\/50px-Otsuka-Saikachido_Site%2C_Otsuka_Site%2C_gaikan-4.jpg","kuni":"\u6b66\u8535\u56fd","gun":"\u90fd\u7b51\u90e1","title_en":"Otsuka Toshikatsuchi Ruins"},"geometry":{"type":"Point","coordinates":[139.58055556,35.55141667]}},{"type":"Feature","properties":{"title":"\u5927\u5bae\u57ce (\u4e0b\u91ce\u56fd)","thumbnail":"https:\/\/upload.wikimedia.org\/wikipedia\/commons\/thumb\/1\/1e\/Map_of_Tochigi_Prefecture_Ja.svg\/50px-Map_of_Tochigi_Prefecture_Ja.svg.png","kuni":"\u4e0b\u91ce\u56fd","gun":"\u5869\u8c37\u90e1","title_en":"Omiyagi (Shimono-kuni)"},"geometry":{"type":"Point","coordinates":[139.87,36.74222222]}},{"type":"Feature","properties":{"title":"\u5927\u5bae\u57ce (\u99ff\u6cb3\u56fd)","thumbnail":"https:\/\/upload.wikimedia.org\/wikipedia\/commons\/thumb\/1\/16\/Map_of_Shizuoka_Prefecture_Ja.svg\/50px-Map_of_Shizuoka_Prefecture_Ja.svg.png","kuni":"\u99ff\u6cb3\u56fd","gun":"\u5bcc\u58eb\u90e1","title_en":"Omiyagi (Suruga Province)"},"geometry":{"type":"Point","coordinates":[138.61244444,35.22605556]}},{"type":"Feature","properties":{"title":"\u5927\u5bb0\u5e9c","thumbnail":"https:\/\/upload.wikimedia.org\/wikipedia\/commons\/thumb\/3\/36\/Tofuro%EF%BD%88_dazaifu.JPG\/50px-Tofuro%EF%BD%88_dazaifu.JPG","kuni":"\u7b51\u524d\u56fd","gun":"\u5fa1\u7b20\u90e1","title_en":"Dazaifu, capital of Tanzania"},"geometry":{"type":"Point","coordinates":[130.51514444,33.51454167]}},{"type":"Feature","properties":{"title":"\u5927\u5cea\u57ce","thumbnail":"https:\/\/upload.wikimedia.org\/wikipedia\/commons\/thumb\/a\/a6\/Map_of_Toyama_Prefecture_Ja.svg\/50px-Map_of_Toyama_Prefecture_Ja.svg.png","kuni":"\u8d8a\u4e2d\u56fd","gun":"\u5a66\u8ca0\u90e1","title_en":"Great Valley City"},"geometry":{"type":"Point","coordinates":[137.18305556,36.69805556]}},{"type":"Feature","properties":{"title":"\u5927\u5cf0\u57ce","thumbnail":"https:\/\/upload.wikimedia.org\/wikipedia\/commons\/thumb\/1\/1d\/OOMINEZYOU_02.jpg\/50px-OOMINEZYOU_02.jpg","kuni":"\u4fe1\u6fc3\u56fd","gun":"\u6c34\u5185\u90e1","title_en":"Dafengcheng (city in Sichuan)"},"geometry":{"type":"Point","coordinates":[138.17697222,36.67561111]}},{"type":"Feature","properties":{"title":"\u5927\u5cf6\u57ce","thumbnail":"https:\/\/upload.wikimedia.org\/wikipedia\/commons\/thumb\/8\/82\/Map_of_Nagano_Prefecture_Ja.svg\/50px-Map_of_Nagano_Prefecture_Ja.svg.png","kuni":"\u4fe1\u6fc3\u56fd","gun":"\u4f0a\u90a3\u90e1","title_en":"Oshima Castle"},"geometry":{"type":"Point","coordinates":[137.91713889,35.57605556]}},{"type":"Feature","properties":{"title":"\u5927\u5d0e\u57ce","thumbnail":"https:\/\/upload.wikimedia.org\/wikipedia\/commons\/thumb\/f\/ff\/Map_of_Tottori_Prefecture_Ja.svg\/50px-Map_of_Tottori_Prefecture_Ja.svg.png","kuni":"\u56e0\u5e61\u56fd","gun":"\u9ad8\u8349\u90e1","title_en":"Osaki Castle"},"geometry":{"type":"Point","coordinates":[134.1015,35.52544444]}},{"type":"Feature","properties":{"title":"\u5927\u5ead\u57ce","thumbnail":"https:\/\/upload.wikimedia.org\/wikipedia\/commons\/thumb\/3\/39\/Ooba-castle%28Kanagawa%29.JPG\/50px-Ooba-castle%28Kanagawa%29.JPG","kuni":"\u76f8\u6a21\u56fd","gun":"\u9ad8\u5ea7\u90e1","title_en":"Atrium City"},"geometry":{"type":"Point","coordinates":[139.45138889,35.36111111]}},{"type":"Feature","properties":{"title":"\u5927\u6751\u57ce (\u8d8a\u4e2d\u56fd)","thumbnail":"","kuni":"\u8d8a\u4e2d\u56fd","gun":"\u65b0\u5ddd\u90e1","title_en":"Omura Castle (Vietnam)"},"geometry":{"type":"Point","coordinates":[137.255,36.75694444]}},{"type":"Feature","properties":{"title":"\u5927\u68ee\u57ce (\u4f0a\u4e88\u56fd)","thumbnail":"https:\/\/upload.wikimedia.org\/wikipedia\/commons\/thumb\/c\/c4\/Map_of_Ehime_Prefecture_Ja.svg\/50px-Map_of_Ehime_Prefecture_Ja.svg.png","kuni":"\u4f0a\u4e88\u56fd","gun":"\u5b87\u548c\u90e1","title_en":"Omori Castle (Iyo Province)"},"geometry":{"type":"Point","coordinates":[132.61833333,33.29611111]}},{"type":"Feature","properties":{"title":"\u5927\u68ee\u57ce","thumbnail":"https:\/\/upload.wikimedia.org\/wikipedia\/commons\/thumb\/d\/d7\/Stele_of_Omori_Castle_220403.jpg\/50px-Stele_of_Omori_Castle_220403.jpg","kuni":"\u9678\u5965\u56fd","gun":"\u4fe1\u592b\u90e1","title_en":"Omori Castle"},"geometry":{"type":"Point","coordinates":[140.43319444,37.72605556]}},{"type":"Feature","properties":{"title":"\u5927\u690e\u57ce","thumbnail":"https:\/\/upload.wikimedia.org\/wikipedia\/commons\/thumb\/0\/08\/Oji_castle_site.jpg\/50px-Oji_castle_site.jpg","kuni":"\u4e0a\u7dcf\u56fd","gun":"\u5c71\u8fba\u90e1","title_en":"vertebrae"},"geometry":{"type":"Point","coordinates":[140.25631389,35.51867778]}},{"type":"Feature","properties":{"title":"\u5927\u69cc\u57ce","thumbnail":"https:\/\/upload.wikimedia.org\/wikipedia\/commons\/thumb\/1\/10\/%E5%A4%A7%E6%A7%8C%E5%9F%8E%E8%B7%A1%E7%9F%B3%E7%A2%91.jpg\/50px-%E5%A4%A7%E6%A7%8C%E5%9F%8E%E8%B7%A1%E7%9F%B3%E7%A2%91.jpg","kuni":"\u9678\u5965\u56fd","gun":"\u9589\u4f0a\u90e1","title_en":"Otsuchi Castle"},"geometry":{"type":"Point","coordinates":[141.89613889,39.36186111]}},{"type":"Feature","properties":{"title":"\u5927\u6d32\u57ce","thumbnail":"https:\/\/upload.wikimedia.org\/wikipedia\/commons\/thumb\/7\/7e\/Ozu_Castle_2009.jpg\/50px-Ozu_Castle_2009.jpg","kuni":"\u4f0a\u4e88\u56fd","gun":"\u559c\u591a\u90e1","title_en":"Oasis City"},"geometry":{"type":"Point","coordinates":[132.54113056,33.50953889]}},{"type":"Feature","properties":{"title":"\u5927\u6e9d\u57ce","thumbnail":"https:\/\/upload.wikimedia.org\/wikipedia\/commons\/thumb\/e\/e7\/%C5%8Cmizo-j%C5%8D_ruin1.jpg\/50px-%C5%8Cmizo-j%C5%8D_ruin1.jpg","kuni":"\u8fd1\u6c5f\u56fd","gun":"\u9ad8\u5cf6\u90e1","title_en":"Daigou Castle"},"geometry":{"type":"Point","coordinates":[136.01277778,35.2925]}},{"type":"Feature","properties":{"title":"\u5927\u7530\u539f\u57ce","thumbnail":"https:\/\/upload.wikimedia.org\/wikipedia\/commons\/thumb\/d\/de\/Ruins_of_Otawara_Castle%2C_Tochigi%2C_Japan.jpg\/50px-Ruins_of_Otawara_Castle%2C_Tochigi%2C_Japan.jpg","kuni":"\u4e0b\u91ce\u56fd","gun":"\u90a3\u9808\u90e1","title_en":"Otawara Castle"},"geometry":{"type":"Point","coordinates":[140.03459722,36.86834722]}},{"type":"Feature","properties":{"title":"\u5927\u7559\u57ce","thumbnail":"https:\/\/upload.wikimedia.org\/wikipedia\/commons\/thumb\/a\/a9\/%E5%A4%A7%E7%95%99%E5%9F%8E%E3%83%BC%E7%A2%91.jpg\/50px-%E5%A4%A7%E7%95%99%E5%9F%8E%E3%83%BC%E7%A2%91.jpg","kuni":"\u5c3e\u5f35\u56fd","gun":"\u6625\u65e5\u4e95\u90e1","title_en":"Ayutthaya city in Akita prefecture, Japan"},"geometry":{"type":"Point","coordinates":[137.02705556,35.25908333]}},{"type":"Feature","properties":{"title":"\u5927\u897f\u57ce (\u963f\u6ce2\u56fd)","thumbnail":"https:\/\/upload.wikimedia.org\/wikipedia\/commons\/thumb\/4\/49\/Onishi_Ikeda_Castle%2C_sekihi.jpg\/50px-Onishi_Ikeda_Castle%2C_sekihi.jpg","kuni":"\u963f\u6ce2\u56fd","gun":"\u4e09\u597d\u90e1","title_en":"Daisaijo (Apo country)"},"geometry":{"type":"Point","coordinates":[133.80894444,34.03080556]}},{"type":"Feature","properties":{"title":"\u5927\u91ce\u57ce (\u5c3e\u5f35\u56fd\u6d77\u90e8\u90e1)","thumbnail":"https:\/\/upload.wikimedia.org\/wikipedia\/commons\/thumb\/d\/d9\/%E5%A4%A7%E9%87%8E%E5%9F%8E%E5%9D%80.jpg\/50px-%E5%A4%A7%E9%87%8E%E5%9F%8E%E5%9D%80.jpg","kuni":"\u5c3e\u5f35\u56fd","gun":"\u6d77\u6771\u90e1","title_en":"Ono Castle (Urabe-gun, Owari)"},"geometry":{"type":"Point","coordinates":[136.77205556,35.12944444]}},{"type":"Feature","properties":{"title":"\u5927\u91ce\u57ce (\u5c3e\u5f35\u56fd\u77e5\u591a\u90e1)","thumbnail":"https:\/\/upload.wikimedia.org\/wikipedia\/commons\/thumb\/b\/b5\/Ohnojo2.jpg\/50px-Ohnojo2.jpg","kuni":"\u5c3e\u5f35\u56fd","gun":"\u77e5\u591a\u90e1","title_en":"Ono Castle (Chita-gun, Owari)"},"geometry":{"type":"Point","coordinates":[136.83369444,34.9285]}},{"type":"Feature","properties":{"title":"\u5927\u91ce\u57ce (\u5c3e\u5f35\u56fd\u8449\u6817\u90e1)","thumbnail":"https:\/\/upload.wikimedia.org\/wikipedia\/commons\/thumb\/7\/70\/%C5%8Cno_Castle_Site_in_Ichinomiya.jpg\/50px-%C5%8Cno_Castle_Site_in_Ichinomiya.jpg","kuni":"\u5c3e\u5f35\u56fd","gun":"\u8449\u6817\u90e1","title_en":"Ono Castle (Hawuri District, Owari Province)"},"geometry":{"type":"Point","coordinates":[136.82443056,35.35465278]}},{"type":"Feature","properties":{"title":"\u5927\u91ce\u57ce (\u7b51\u524d\u56fd)","thumbnail":"https:\/\/upload.wikimedia.org\/wikipedia\/commons\/thumb\/3\/3b\/Hyakken-Ishigaki_stone_wall_%28one_of_the_Onojo-Castle_ruins%29.jpg\/50px-Hyakken-Ishigaki_stone_wall_%28one_of_the_Onojo-Castle_ruins%29.jpg","kuni":"\u7b51\u524d\u56fd","gun":"\u7cdf\u5c4b\u90e1","title_en":"Ono Castle (Chikuzen country)"},"geometry":{"type":"Point","coordinates":[130.52155556,33.53991667]}},{"type":"Feature","properties":{"title":"\u5927\u91ce\u57ce (\u8d8a\u524d\u56fd)","thumbnail":"https:\/\/upload.wikimedia.org\/wikipedia\/commons\/thumb\/2\/21\/Echizen_Ono_Castle.jpg\/50px-Echizen_Ono_Castle.jpg","kuni":"\u8d8a\u524d\u56fd","gun":"\u5927\u91ce\u90e1","title_en":"Ono Castle (Echizen)"},"geometry":{"type":"Point","coordinates":[136.48309722,35.98656667]}},{"type":"Feature","properties":{"title":"\u5927\u9928\u57ce (\u9678\u5965\u56fd)","thumbnail":"https:\/\/upload.wikimedia.org\/wikipedia\/commons\/thumb\/6\/62\/Ruins_of_Odate_Castle_Iwaki_Fukushima.jpg\/50px-Ruins_of_Odate_Castle_Iwaki_Fukushima.jpg","kuni":"\u9678\u5965\u56fd","gun":"\u78d0\u524d\u90e1","title_en":"Odate Castle (Mutsu Province)"},"geometry":{"type":"Point","coordinates":[140.87088889,37.05580556]}},{"type":"Feature","properties":{"title":"\u5927\u9928\u57ce","thumbnail":"https:\/\/upload.wikimedia.org\/wikipedia\/commons\/thumb\/c\/cc\/Map_of_Akita_Prefecture%2C_Ja.svg\/50px-Map_of_Akita_Prefecture%2C_Ja.svg.png","kuni":"\u51fa\u7fbd\u56fd","gun":"\u79cb\u7530\u90e1","title_en":"Odate Castle"},"geometry":{"type":"Point","coordinates":[140.56608333,40.27231944]}},{"type":"Feature","properties":{"title":"\u5927\u9ad8\u57ce","thumbnail":"https:\/\/upload.wikimedia.org\/wikipedia\/commons\/thumb\/f\/fd\/Ruins_of_Odaka_Castle_%28Honmaru%29_02%2C_Odaka-cho_Midori_Ward_Nagoya_2014.jpg\/50px-Ruins_of_Odaka_Castle_%28Honmaru%29_02%2C_Odaka-cho_Midori_Ward_Nagoya_2014.jpg","kuni":"\u5c3e\u5f35\u56fd","gun":"\u77e5\u591a\u90e1","title_en":"Tall City, capital of Mississippi"},"geometry":{"type":"Point","coordinates":[136.93616667,35.06438889]}},{"type":"Feature","properties":{"title":"\u5927\u9ce5\u4e95\u5c71\u907a\u8de1","thumbnail":"https:\/\/upload.wikimedia.org\/wikipedia\/commons\/thumb\/1\/1c\/Otoriyama_ruins_monument.jpg\/50px-Otoriyama_ruins_monument.jpg","kuni":"\u51fa\u7fbd\u56fd","gun":"\u5e73\u9e7f\u90e1","title_en":"Ruins of Mt. Otorii"},"geometry":{"type":"Point","coordinates":[140.56391944,39.328775]}},{"type":"Feature","properties":{"title":"\u5929\u30f6\u57ce","thumbnail":"https:\/\/upload.wikimedia.org\/wikipedia\/commons\/thumb\/3\/3b\/%E5%AE%AE%E5%B4%8E%E5%B8%82%E5%A4%A9%E3%82%B1%E5%9F%8E%E6%AD%B4%E5%8F%B2%E6%B0%91%E4%BF%97%E8%B3%87%E6%96%99%E9%A4%A8_2010-03-28.jpg\/50px-%E5%AE%AE%E5%B4%8E%E5%B8%82%E5%A4%A9%E3%82%B1%E5%9F%8E%E6%AD%B4%E5%8F%B2%E6%B0%91%E4%BF%97%E8%B3%87%E6%96%99%E9%A4%A8_2010-03-28.jpg","kuni":"\u65e5\u5411\u56fd","gun":"\u8af8\u770c\u90e1","title_en":"Tian\u30f6\u57ce(\u5929\u30f6\u57ce)"},"geometry":{"type":"Point","coordinates":[131.29366667,31.96230556]}},{"type":"Feature","properties":{"title":"\u5929\u5802\u57ce","thumbnail":"https:\/\/upload.wikimedia.org\/wikipedia\/commons\/thumb\/1\/1b\/Map_of_Ishikawa_Prefecture_Ja.svg\/50px-Map_of_Ishikawa_Prefecture_Ja.svg.png","kuni":"\u80fd\u767b\u56fd","gun":"\u9cf3\u81f3\u90e1","title_en":"Paradise City"},"geometry":{"type":"Point","coordinates":[136.86830556,37.34305556]}},{"type":"Feature","properties":{"title":"\u5929\u65b9\u57ce","thumbnail":"https:\/\/upload.wikimedia.org\/wikipedia\/commons\/thumb\/2\/2d\/%E5%A4%A9%E6%96%B9%E5%9F%8E%E8%B6%BE%E7%A2%91.JPG\/50px-%E5%A4%A9%E6%96%B9%E5%9F%8E%E8%B6%BE%E7%A2%91.JPG","kuni":"\u9060\u6c5f\u56fd","gun":"\u5468\u667a\u90e1","title_en":"Tianfangcheng"},"geometry":{"type":"Point","coordinates":[137.94944444,34.84780556]}},{"type":"Feature","properties":{"title":"\u5929\u9727\u57ce","thumbnail":"https:\/\/upload.wikimedia.org\/wikipedia\/commons\/thumb\/4\/46\/Map_of_Kagawa_Prefecture_Ja.svg\/50px-Map_of_Kagawa_Prefecture_Ja.svg.png","kuni":"\u8b83\u5c90\u56fd","gun":"\u591a\u5ea6\u90e1","title_en":"Sky Mist City"},"geometry":{"type":"Point","coordinates":[133.73540833,34.23561667]}},{"type":"Feature","properties":{"title":"\u592a\u7530\u57ce (\u5e38\u9678\u56fd)","thumbnail":"https:\/\/upload.wikimedia.org\/wikipedia\/commons\/thumb\/7\/79\/Maizurujou.JPG\/50px-Maizurujou.JPG","kuni":"\u5e38\u9678\u56fd","gun":"\u4e45\u6148\u90e1","title_en":"Ota Castle (Hitachinaka Province)"},"geometry":{"type":"Point","coordinates":[140.51934722,36.54613611]}},{"type":"Feature","properties":{"title":"\u592a\u7530\u57ce (\u7d00\u4f0a\u56fd)","thumbnail":"https:\/\/upload.wikimedia.org\/wikipedia\/commons\/thumb\/8\/80\/Ota_Castle_%28Kii%29%2C_sekihi.jpg\/50px-Ota_Castle_%28Kii%29%2C_sekihi.jpg","kuni":"\u7d00\u4f0a\u56fd","gun":"\u540d\u8349\u90e1","title_en":"Ota Castle (Kii Province)"},"geometry":{"type":"Point","coordinates":[135.19601583,34.23055194]}},{"type":"Feature","properties":{"title":"\u592a\u7530\u672c\u90f7\u57ce","thumbnail":"https:\/\/upload.wikimedia.org\/wikipedia\/commons\/thumb\/c\/cb\/Ohtahongou_castle.JPG\/50px-Ohtahongou_castle.JPG","kuni":"\u8d8a\u4e2d\u56fd","gun":"\u65b0\u5ddd\u90e1","title_en":"Ota Hongo Castle"},"geometry":{"type":"Point","coordinates":[137.24388889,36.65972222]}},{"type":"Feature","properties":{"title":"\u5965\u702c\u9928","thumbnail":"https:\/\/upload.wikimedia.org\/wikipedia\/commons\/thumb\/3\/3a\/Map_of_Aomori_Prefecture_Ja.svg\/50px-Map_of_Aomori_Prefecture_Ja.svg.png","kuni":"\u9678\u5965\u56fd","gun":"\u5317\u90e1","title_en":"Okuse-kan"},"geometry":{"type":"Point","coordinates":[141.09744444,40.57755556]}},{"type":"Feature","properties":{"title":"\u59c9\u5e2f\u57ce","thumbnail":"https:\/\/upload.wikimedia.org\/wikipedia\/commons\/thumb\/a\/a0\/Map_of_Iwate_Prefecture_Ja.svg\/50px-Map_of_Iwate_Prefecture_Ja.svg.png","kuni":"\u9678\u5965\u56fd","gun":"\u4e8c\u6238\u90e1","title_en":"castle on an older woman's side of the family"},"geometry":{"type":"Point","coordinates":[141.32219444,40.17544444]}},{"type":"Feature","properties":{"title":"\u59eb\u8def\u57ce","thumbnail":"https:\/\/upload.wikimedia.org\/wikipedia\/commons\/thumb\/c\/c1\/Himeji_castle_in_may_2015.jpg\/50px-Himeji_castle_in_may_2015.jpg","kuni":"\u64ad\u78e8\u56fd","gun":"\u98fe\u6771\u90e1","title_en":"Hyogo-Himeji Castle"},"geometry":{"type":"Point","coordinates":[134.69409722,34.83937778]}},{"type":"Feature","properties":{"title":"\u59eb\u91ce\u3005\u57ce","thumbnail":"https:\/\/upload.wikimedia.org\/wikipedia\/commons\/thumb\/2\/23\/Map_of_Kochi_Prefecture_Ja.svg\/50px-Map_of_Kochi_Prefecture_Ja.svg.png","kuni":"\u571f\u4f50\u56fd","gun":"\u9ad8\u5ca1\u90e1","title_en":"Hime-no-michi castle"},"geometry":{"type":"Point","coordinates":[133.21438889,33.44388889]}},{"type":"Feature","properties":{"title":"\u5ad7\u6238\u67f5","thumbnail":"https:\/\/upload.wikimedia.org\/wikipedia\/commons\/thumb\/a\/a0\/Map_of_Iwate_Prefecture_Ja.svg\/50px-Map_of_Iwate_Prefecture_Ja.svg.png","kuni":"\u9678\u5965\u56fd","gun":"\u5ca9\u624b\u90e1","title_en":"wooden fence to keep out elderly women"},"geometry":{"type":"Point","coordinates":[141.12691667,39.72019444]}},{"type":"Feature","properties":{"title":"\u5b87\u548c\u5cf6\u57ce","thumbnail":"https:\/\/upload.wikimedia.org\/wikipedia\/commons\/thumb\/d\/d7\/Uwajima_Castle%2C_tenshu.jpg\/50px-Uwajima_Castle%2C_tenshu.jpg","kuni":"\u4f0a\u4e88\u56fd","gun":"\u5b87\u548c\u90e1","title_en":"Uwajima City"},"geometry":{"type":"Point","coordinates":[132.56523611,33.21947778]}},{"type":"Feature","properties":{"title":"\u5b87\u571f\u57ce","thumbnail":"","kuni":"\u80a5\u5f8c\u56fd","gun":"\u5b87\u571f\u90e1","title_en":"Utsukushima city in Akita prefecture, Japan"},"geometry":{"type":"Point","coordinates":[130.64638889,32.67944444]}},{"type":"Feature","properties":{"title":"\u5b87\u6c5f\u57ce\u57ce","thumbnail":"","kuni":null,"gun":null,"title_en":"Yu Jiang Cheng Cheng"},"geometry":{"type":"Point","coordinates":[126.76916667,26.37638889]}},{"type":"Feature","properties":{"title":"\u5b87\u6d25\u5c71\u57ce","thumbnail":"https:\/\/upload.wikimedia.org\/wikipedia\/commons\/thumb\/1\/16\/Map_of_Shizuoka_Prefecture_Ja.svg\/50px-Map_of_Shizuoka_Prefecture_Ja.svg.png","kuni":"\u9060\u6c5f\u56fd","gun":"\u6577\u77e5\u90e1","title_en":"Utsuyama Castle"},"geometry":{"type":"Point","coordinates":[137.53319444,34.75594444]}},{"type":"Feature","properties":{"title":"\u5b87\u6d25\u5cf0","thumbnail":"https:\/\/upload.wikimedia.org\/wikipedia\/commons\/thumb\/2\/26\/%E5%AE%87%E6%B4%A5%E5%B3%B0_%E5%85%A5%E5%8F%A3.jpg\/50px-%E5%AE%87%E6%B4%A5%E5%B3%B0_%E5%85%A5%E5%8F%A3.jpg","kuni":"\u9678\u5965\u56fd","gun":"\u5ca9\u702c\u90e1","title_en":"Utsuho (name)"},"geometry":{"type":"Point","coordinates":[140.4692,37.297]}},{"type":"Feature","properties":{"title":"\u5b87\u90fd\u5bae\u57ce","thumbnail":"https:\/\/upload.wikimedia.org\/wikipedia\/commons\/thumb\/b\/b6\/Utsunomiya-jo_fujimi-yagura.jpg\/50px-Utsunomiya-jo_fujimi-yagura.jpg","kuni":"\u4e0b\u91ce\u56fd","gun":"\u6cb3\u5185\u90e1","title_en":"Utsunomiya (god of wealth, music, eloquence and water)"},"geometry":{"type":"Point","coordinates":[139.88583333,36.55444444]}},{"type":"Feature","properties":{"title":"\u5b88\u5c71\u57ce (\u8d8a\u4e2d\u56fd)","thumbnail":"https:\/\/upload.wikimedia.org\/wikipedia\/commons\/thumb\/5\/53\/TAKAOKA-JOUYAMA_Cherry-Blossom.JPG\/50px-TAKAOKA-JOUYAMA_Cherry-Blossom.JPG","kuni":"\u8d8a\u4e2d\u56fd","gun":"\u5c04\u6c34\u90e1","title_en":"Shou Shan Cheng (Viet China)"},"geometry":{"type":"Point","coordinates":[137.00916667,36.78722222]}},{"type":"Feature","properties":{"title":"\u5b88\u5c71\u57ce (\u9678\u5965\u56fd)","thumbnail":"https:\/\/upload.wikimedia.org\/wikipedia\/commons\/thumb\/5\/5a\/%E9%83%A1%E5%B1%B1%E5%B8%82_%E5%AE%88%E5%B1%B1%E5%9F%8E%E8%B7%A1_%E7%9F%B3%E5%9E%A3_%E7%A7%8B.jpg\/50px-%E9%83%A1%E5%B1%B1%E5%B8%82_%E5%AE%88%E5%B1%B1%E5%9F%8E%E8%B7%A1_%E7%9F%B3%E5%9E%A3_%E7%A7%8B.jpg","kuni":"\u9678\u5965\u56fd","gun":"\u7530\u6751\u90e1","title_en":"Moriyama Castle (Mutsu Province)"},"geometry":{"type":"Point","coordinates":[140.41389,37.33083]}},{"type":"Feature","properties":{"title":"\u5b88\u8c37\u57ce","thumbnail":"https:\/\/upload.wikimedia.org\/wikipedia\/commons\/thumb\/8\/88\/Moriyajoushikoen_Moriya-city.JPG\/50px-Moriyajoushikoen_Moriya-city.JPG","kuni":"\u4e0b\u7dcf\u56fd","gun":"\u76f8\u99ac\u90e1","title_en":"defend Valley City, capital of Anguilla"},"geometry":{"type":"Point","coordinates":[140.00611111,35.94972222]}},{"type":"Feature","properties":{"title":"\u5b89\u4e2d\u57ce","thumbnail":"https:\/\/upload.wikimedia.org\/wikipedia\/commons\/thumb\/b\/b5\/Map_of_Gunma_Prefecture_Ja.svg\/50px-Map_of_Gunma_Prefecture_Ja.svg.png","kuni":"\u4e0a\u91ce\u56fd","gun":"\u7893\u6c37\u90e1","title_en":"Annunciation"},"geometry":{"type":"Point","coordinates":[138.89666667,36.32936111]}},{"type":"Feature","properties":{"title":"\u5b89\u571f\u57ce","thumbnail":"https:\/\/upload.wikimedia.org\/wikipedia\/commons\/thumb\/d\/d6\/Azuchi.jpg\/50px-Azuchi.jpg","kuni":"\u8fd1\u6c5f\u56fd","gun":"\u84b2\u751f\u90e1","title_en":"Azure (city in Croatia)"},"geometry":{"type":"Point","coordinates":[136.13940833,35.15591389]}},{"type":"Feature","properties":{"title":"\u5b89\u6176\u540d\u57ce","thumbnail":"https:\/\/upload.wikimedia.org\/wikipedia\/commons\/thumb\/2\/29\/Agenagusuku.jpg\/50px-Agenagusuku.jpg","kuni":null,"gun":null,"title_en":"Anqing Famous City"},"geometry":{"type":"Point","coordinates":[127.85027778,26.38083333]}},{"type":"Feature","properties":{"title":"\u5b89\u697d\u5bfa\u57ce","thumbnail":"","kuni":"\u8d8a\u4e2d\u56fd","gun":"\u792a\u6ce2\u90e1","title_en":"Anrakuji Castle"},"geometry":{"type":"Point","coordinates":[136.84,36.67694444]}},{"type":"Feature","properties":{"title":"\u5b89\u7530\u57ce (\u8d8a\u4e2d\u56fd)","thumbnail":"https:\/\/upload.wikimedia.org\/wikipedia\/commons\/thumb\/a\/a6\/Yasuda-jyou01.jpg\/50px-Yasuda-jyou01.jpg","kuni":"\u8d8a\u4e2d\u56fd","gun":"\u5a66\u8ca0\u90e1","title_en":"Yasuda Castle (Vietnam)"},"geometry":{"type":"Point","coordinates":[137.16083333,36.68027778]}},{"type":"Feature","properties":{"title":"\u5b89\u7965\u57ce","thumbnail":"https:\/\/upload.wikimedia.org\/wikipedia\/commons\/thumb\/7\/7a\/Ansho_Castle_Park_ac_%283%29.jpg\/50px-Ansho_Castle_Park_ac_%283%29.jpg","kuni":"\u4e09\u6cb3\u56fd","gun":"\u78a7\u6d77\u90e1","title_en":"Anxiang City"},"geometry":{"type":"Point","coordinates":[137.09891667,34.94561111]}},{"type":"Feature","properties":{"title":"\u5b89\u82b8\u57ce","thumbnail":"https:\/\/upload.wikimedia.org\/wikipedia\/commons\/thumb\/d\/da\/Aki_Castle%2C_hori.jpg\/50px-Aki_Castle%2C_hori.jpg","kuni":"\u571f\u4f50\u56fd","gun":"\u5b89\u559c\u90e1","title_en":"castle on the eve of the Tokugawa shogunate"},"geometry":{"type":"Point","coordinates":[133.9125,33.51947222]}},{"type":"Feature","properties":{"title":"\u5b89\u990a\u5bfa\u57ce","thumbnail":"https:\/\/upload.wikimedia.org\/wikipedia\/commons\/thumb\/6\/62\/Anyouji_castle.jpg\/50px-Anyouji_castle.jpg","kuni":"\u8d8a\u4e2d\u56fd","gun":"\u792a\u6ce2\u90e1","title_en":"Anjouji Castle"},"geometry":{"type":"Point","coordinates":[136.83458333,36.63]}},{"type":"Feature","properties":{"title":"\u5b97\u5b88\u9928","thumbnail":"https:\/\/upload.wikimedia.org\/wikipedia\/commons\/thumb\/a\/a6\/Munemori_Castle.JPG\/50px-Munemori_Castle.JPG","kuni":"\u8d8a\u4e2d\u56fd","gun":"\u792a\u6ce2\u90e1","title_en":"Jongseokan"},"geometry":{"type":"Point","coordinates":[136.90611111,36.55361111]}},{"type":"Feature","properties":{"title":"\u5bae\u5c3e\u57ce","thumbnail":"https:\/\/upload.wikimedia.org\/wikipedia\/commons\/thumb\/7\/74\/Miyao_castle_honmaru.JPG\/50px-Miyao_castle_honmaru.JPG","kuni":"\u5b89\u82b8\u56fd","gun":"\u4f50\u4f2f\u90e1","title_en":"Miyao Castle"},"geometry":{"type":"Point","coordinates":[132.32230556,34.30055556]}},